primary_key;zipcode;city;state;community;latitude;longitude
1;01945;Grünewald;Brandenburg;Landkreis Oberspreewald-Lausitz;51.4;14.0
2;01945;Lindenau;Brandenburg;Landkreis Oberspreewald-Lausitz;51.4;13.7333
3;01945;Hohenbocka;Brandenburg;Landkreis Oberspreewald-Lausitz;51.431;14.0098
4;01945;Schwarzbach;Brandenburg;Landkreis Oberspreewald-Lausitz;51.45;13.9333
5;01945;Guteborn;Brandenburg;Landkreis Oberspreewald-Lausitz;51.4167;13.9333
6;01945;Hermsdorf;Brandenburg;Landkreis Oberspreewald-Lausitz;51.4055;13.8937
7;01945;Ruhland;Brandenburg;Landkreis Oberspreewald-Lausitz;51.4576;13.8664
8;01945;Tettau;Brandenburg;Landkreis Oberspreewald-Lausitz;51.4333;13.7333
9;01945;Kroppen;Brandenburg;Landkreis Oberspreewald-Lausitz;51.3833;13.8
10;01968;Schipkau Hörlitz;Brandenburg;Landkreis Oberspreewald-Lausitz;51.5299;13.9508
11;01968;Senftenberg;Brandenburg;Landkreis Oberspreewald-Lausitz;51.5252;14.0016
12;01968;Schipkau;Brandenburg;Landkreis Oberspreewald-Lausitz;51.5456;13.9121
13;01979;Lauchhammer;Brandenburg;Landkreis Oberspreewald-Lausitz;51.4881;13.7662
14;01983;Neu-Seeland;Brandenburg;Landkreis Oberspreewald-Lausitz;51.6214;14.1309
15;01983;Großräschen;Brandenburg;Landkreis Oberspreewald-Lausitz;51.5876;14.0109
16;01987;Schwarzheide;Brandenburg;Landkreis Oberspreewald-Lausitz;51.4767;13.8556
17;01990;Ortrand;Brandenburg;Landkreis Oberspreewald-Lausitz;51.375;13.7598
18;01990;Großkmehlen;Brandenburg;Landkreis Oberspreewald-Lausitz;51.379;13.725
19;01990;Frauendorf;Brandenburg;Landkreis Oberspreewald-Lausitz;51.4148;13.7696
20;01993;Schipkau Schipkau;Brandenburg;Landkreis Oberspreewald-Lausitz;51.5101;13.8981
21;01993;Schipkau;Brandenburg;Landkreis Oberspreewald-Lausitz;51.5456;13.9121
22;01994;Schipkau Annahütte, Annahütte;Brandenburg;Landkreis Oberspreewald-Lausitz;51.5632;13.8955
23;01994;Schipkau Annahütte, Karl-Marx-Siedlung;Brandenburg;Landkreis Oberspreewald-Lausitz;51.5641;13.8692
24;01994;Schipkau Drochow;Brandenburg;Landkreis Oberspreewald-Lausitz;51.5693;13.9237
25;01994;Schipkau;Brandenburg;Landkreis Oberspreewald-Lausitz;51.5456;13.9121
26;01994;Schipkau Meuro;Brandenburg;Landkreis Oberspreewald-Lausitz;51.5504;13.9244
27;01994;Schipkau Annahütte;Brandenburg;Landkreis Oberspreewald-Lausitz;51.5614;13.882
28;01994;Schipkau Annahütte, Annahütte-Siedlung;Brandenburg;Landkreis Oberspreewald-Lausitz;51.5623;13.8742
29;01994;Schipkau Annahütte, Herrnnmühle;Brandenburg;Landkreis Oberspreewald-Lausitz;51.5558;13.8891
30;01996;Hosena;Brandenburg;Landkreis Oberspreewald-Lausitz;51.4547;14.0251
31;01998;Schipkau;Brandenburg;Landkreis Oberspreewald-Lausitz;51.5456;13.9121
32;01998;Schipkau Meuro;Brandenburg;Landkreis Oberspreewald-Lausitz;51.5504;13.9244
33;01998;Schipkau Klettwitz;Brandenburg;Landkreis Oberspreewald-Lausitz;51.5422;13.8994
34;03042;Cottbus;Brandenburg;Kreisfreie Stadt Cottbus;51.7612;14.3544
35;03044;Cottbus;Brandenburg;Kreisfreie Stadt Cottbus;51.7754;14.3374
36;03046;Cottbus;Brandenburg;Kreisfreie Stadt Cottbus;51.756;14.3197
37;03048;Cottbus;Brandenburg;Kreisfreie Stadt Cottbus;51.7403;14.3198
38;03050;Cottbus;Brandenburg;Kreisfreie Stadt Cottbus;51.7324;14.3347
39;03051;Cottbus;Brandenburg;Kreisfreie Stadt Cottbus;51.7667;14.3333
40;03052;Cottbus;Brandenburg;Kreisfreie Stadt Cottbus;51.7667;14.3333
41;03053;Cottbus;Brandenburg;Kreisfreie Stadt Cottbus;51.7667;14.3333
42;03054;Cottbus;Brandenburg;Kreisfreie Stadt Cottbus;51.7667;14.3333
43;03055;Cottbus;Brandenburg;Kreisfreie Stadt Cottbus;51.7667;14.3333
44;03058;Groß Oßnig;Brandenburg;Landkreis Spree-Neiße;51.6783;14.3592
45;03058;Groß Döbbern;Brandenburg;Landkreis Spree-Neiße;51.6515;14.3298
46;03058;Haasow;Brandenburg;Landkreis Spree-Neiße;51.7426;14.4209
47;03058;Klein Döbbern;Brandenburg;Landkreis Spree-Neiße;51.6682;14.345
48;03058;Neuhausen;Brandenburg;Landkreis Spree-Neiße;51.6788;14.4163
49;03058;Kathlow;Brandenburg;Landkreis Spree-Neiße;51.7252;14.4839
50;03058;Sergen;Brandenburg;Landkreis Spree-Neiße;51.7023;14.5025
51;03058;Koppatz;Brandenburg;Landkreis Spree-Neiße;51.6962;14.4266
52;03058;Gablenz;Brandenburg;Landkreis Spree-Neiße;51.6865;14.5094
53;03058;Groß Gaglow;Brandenburg;Kreisfreie Stadt Cottbus;51.7139;14.3248
54;03058;Frauendorf;Brandenburg;Landkreis Spree-Neiße;51.7007;14.3878
55;03058;Kiekebusch;Brandenburg;Kreisfreie Stadt Cottbus;51.7235;14.3631
56;03058;Roggosen;Brandenburg;Landkreis Spree-Neiße;51.7043;14.4614
57;03058;Komptendorf;Brandenburg;Landkreis Spree-Neiße;51.6846;14.4727
58;03058;Laubsdorf;Brandenburg;Landkreis Spree-Neiße;51.6744;14.442
59;03058;Gallinchen;Brandenburg;Kreisfreie Stadt Cottbus;51.711;14.3539
60;03096;Briesen;Brandenburg;Landkreis Spree-Neiße;51.8155;14.2442
61;03096;Guhrow;Brandenburg;Landkreis Spree-Neiße;51.812;14.2294
62;03096;Schmogrow-Fehrow;Brandenburg;Landkreis Spree-Neiße;51.85;14.2333
63;03096;Werben;Brandenburg;Landkreis Spree-Neiße;51.8167;14.1833
64;03096;Dissen-Striesow;Brandenburg;Landkreis Spree-Neiße;51.825;14.2833
65;03096;Burg (Spreewald);Brandenburg;Landkreis Spree-Neiße;51.8333;14.15
66;03099;Kolkwitz;Brandenburg;Landkreis Spree-Neiße;51.75;14.25
67;03103;Neu-Seeland;Brandenburg;Landkreis Oberspreewald-Lausitz;51.6214;14.1309
68;03103;Neupetershain;Brandenburg;Landkreis Oberspreewald-Lausitz;51.608;14.1651
69;03116;Drebkau;Brandenburg;Landkreis Spree-Neiße;51.6541;14.2232
70;03119;Welzow;Brandenburg;Landkreis Spree-Neiße;51.5838;14.1708
71;03130;Reuthen;Brandenburg;Landkreis Spree-Neiße;51.5906;14.5266
72;03130;Türkendorf;Brandenburg;Landkreis Spree-Neiße;51.591;14.4581
73;03130;Proschim;Brandenburg;Landkreis Spree-Neiße;51.5514;14.1884
74;03130;Graustein;Brandenburg;Landkreis Spree-Neiße;51.5729;14.4732
75;03130;Hornow-Wadelsdorf;Brandenburg;Landkreis Spree-Neiße;51.625;14.4917
76;03130;Bagenz;Brandenburg;Landkreis Spree-Neiße;51.6448;14.4332
77;03130;Lieskau;Brandenburg;Landkreis Spree-Neiße;51.5683;14.5271
78;03130;Groß Luja;Brandenburg;Landkreis Spree-Neiße;51.5978;14.4467
79;03130;Haidemühl;Brandenburg;Landkreis Spree-Neiße;51.5518;14.2219
80;03130;Wolfshain;Brandenburg;Landkreis Spree-Neiße;51.5799;14.589
81;03130;Tschernitz;Brandenburg;Landkreis Spree-Neiße;51.5833;14.6167
82;03130;Spremberg;Brandenburg;Landkreis Spree-Neiße;51.5696;14.3739
83;03130;Drieschnitz-Kahsel;Brandenburg;Landkreis Spree-Neiße;51.6667;14.475
84;03130;Jämlitz-Klein Düben;Brandenburg;Landkreis Spree-Neiße;51.5667;14.6417
85;03130;Felixsee;Brandenburg;Landkreis Spree-Neiße;51.6083;14.5208
86;03139;Terpe;Brandenburg;Landkreis Spree-Neiße;51.5667;14.3667
87;03149;Forst (Lausitz);Brandenburg;Landkreis Spree-Neiße;51.7302;14.598
88;03149;Wiesengrund;Brandenburg;Landkreis Spree-Neiße;51.6967;14.5533
89;03149;Groß Schacksdorf-Simmersdorf;Brandenburg;Landkreis Spree-Neiße;51.7;14.625
90;03159;Döbern;Brandenburg;Landkreis Spree-Neiße;51.6159;14.5981
91;03159;Neiße-Malxetal;Brandenburg;Landkreis Spree-Neiße;51.6433;14.63
92;03159;Wiesengrund;Brandenburg;Landkreis Spree-Neiße;51.6967;14.5533
93;03172;Atterwasch;Brandenburg;Landkreis Spree-Neiße;51.9342;14.6255
94;03172;Bärenklau;Brandenburg;Landkreis Spree-Neiße;51.9383;14.5667
95;03172;Grabko;Brandenburg;Landkreis Spree-Neiße;51.9099;14.5756
96;03172;Guben;Brandenburg;Landkreis Spree-Neiße;51.9499;14.7145
97;03172;Pinnow-Heideland;Brandenburg;Landkreis Spree-Neiße;51.9833;14.5333
98;03172;Grießen;Brandenburg;Landkreis Spree-Neiße;51.8492;14.5924
99;03172;Gastrose-Kerkwitz;Brandenburg;Landkreis Spree-Neiße;51.9;14.65
100;03172;Lutzketal;Brandenburg;Landkreis Spree-Neiße;51.9833;14.6238
101;03185;Drehnow;Brandenburg;Landkreis Spree-Neiße;51.8667;14.3667
102;03185;Peitz;Brandenburg;Landkreis Spree-Neiße;51.8584;14.4114
103;03185;Grötsch;Brandenburg;Landkreis Spree-Neiße;51.7932;14.5096
104;03185;Heinersbrück;Brandenburg;Landkreis Spree-Neiße;51.8199;14.5074
105;03185;Tauer;Brandenburg;Landkreis Spree-Neiße;51.9;14.45
106;03185;Turnow-Preilack;Brandenburg;Landkreis Spree-Neiße;51.875;14.4083
107;03185;Drachhausen;Brandenburg;Landkreis Spree-Neiße;51.8903;14.3164
108;03185;Teichland;Brandenburg;Landkreis Spree-Neiße;51.8056;14.4444
109;03197;Drewitz;Brandenburg;Landkreis Spree-Neiße;51.8966;14.5103
110;03197;Jänschwalde;Brandenburg;Landkreis Spree-Neiße;51.8607;14.4981
111;03202;Luckow-Petershagen;Brandenburg;Landkreis Uckermark;53.2435;14.2573
112;03205;Missen;Brandenburg;Landkreis Oberspreewald-Lausitz;51.7274;14.0498
113;03205;Calau;Brandenburg;Landkreis Oberspreewald-Lausitz;51.744;13.9533
114;03205;Mlode;Brandenburg;Landkreis Oberspreewald-Lausitz;51.7746;13.9558
115;03205;Ogrosen;Brandenburg;Landkreis Oberspreewald-Lausitz;51.7127;14.0422
116;03205;Laasow;Brandenburg;Landkreis Oberspreewald-Lausitz;51.7134;14.0875
117;03205;Bronkow;Brandenburg;Landkreis Oberspreewald-Lausitz;51.6667;13.9167
118;03205;Saßleben;Brandenburg;Landkreis Oberspreewald-Lausitz;51.7591;13.9865
119;03205;Bischdorf;Brandenburg;Landkreis Oberspreewald-Lausitz;51.7989;13.9698
120;03205;Lug;Brandenburg;Landkreis Oberspreewald-Lausitz;51.6303;13.9296
121;03205;Werchow;Brandenburg;Landkreis Oberspreewald-Lausitz;51.7255;13.9555
122;03205;Luckaitztal;Brandenburg;Landkreis Oberspreewald-Lausitz;51.6833;14.0
123;03205;Lipten;Brandenburg;Landkreis Oberspreewald-Lausitz;51.6463;13.9271
124;03205;Kemmen;Brandenburg;Landkreis Oberspreewald-Lausitz;51.7335;13.9118
125;03205;Groß-Mehßow;Brandenburg;Landkreis Oberspreewald-Lausitz;51.7333;13.8167
126;03205;Bolschwitz;Brandenburg;Landkreis Oberspreewald-Lausitz;51.7485;14.0293
127;03222;Kittlitz;Brandenburg;Landkreis Oberspreewald-Lausitz;51.8308;13.9161
128;03222;Boblitz;Brandenburg;Landkreis Oberspreewald-Lausitz;51.8406;13.9827
129;03222;Groß Beuchow;Brandenburg;Landkreis Oberspreewald-Lausitz;51.85;13.9031
130;03222;Lübbenau/Spreewald;Brandenburg;Landkreis Oberspreewald-Lausitz;51.8626;13.9613
131;03222;Hindenberg;Brandenburg;Landkreis Oberspreewald-Lausitz;51.8532;13.8464
132;03222;Groß-Klessow;Brandenburg;Landkreis Oberspreewald-Lausitz;51.8333;13.95
133;03222;Klein Radden;Brandenburg;Landkreis Oberspreewald-Lausitz;51.8695;13.8796
134;03222;Ragow;Brandenburg;Landkreis Oberspreewald-Lausitz;51.8875;13.902
135;03226;Suschow;Brandenburg;Landkreis Oberspreewald-Lausitz;51.7994;14.0923
136;03226;Raddusch;Brandenburg;Landkreis Oberspreewald-Lausitz;51.8181;14.0403
137;03226;Vetschau;Brandenburg;Landkreis Oberspreewald-Lausitz;51.7864;14.0794
138;03226;Koßwig;Brandenburg;Landkreis Oberspreewald-Lausitz;51.7769;14.0287
139;03226;Leipe;Brandenburg;Landkreis Oberspreewald-Lausitz;51.8554;14.0441
140;03229;Altdöbern;Brandenburg;Landkreis Oberspreewald-Lausitz;51.65;14.0333
141;03229;Luckaitztal;Brandenburg;Landkreis Oberspreewald-Lausitz;51.6833;14.0
142;03238;Rückersdorf;Brandenburg;Landkreis Elbe-Elster;51.5695;13.5723
143;03238;Staupitz;Brandenburg;Landkreis Elbe-Elster;51.5337;13.6703
144;03238;Eichholz-Drößig;Brandenburg;Landkreis Elbe-Elster;51.6083;13.6583
145;03238;Massen;Brandenburg;Landkreis Elbe-Elster;51.6428;13.733
146;03238;Ponnsdorf;Brandenburg;Landkreis Elbe-Elster;51.6667;13.6833
147;03238;Göllnitz;Brandenburg;Landkreis Elbe-Elster;51.64;13.8575
148;03238;Lindthal;Brandenburg;Landkreis Elbe-Elster;51.6581;13.7804
149;03238;Gruhno;Brandenburg;Landkreis Elbe-Elster;51.5678;13.5185
150;03238;Münchhausen;Brandenburg;Landkreis Elbe-Elster;51.6673;13.6447
151;03238;Dollenchen;Brandenburg;Landkreis Elbe-Elster;51.6082;13.8595
152;03238;Gröbitz;Brandenburg;Landkreis Elbe-Elster;51.6582;13.7138
153;03238;Lindena;Brandenburg;Landkreis Elbe-Elster;51.5928;13.5434
154;03238;Oppelhain;Brandenburg;Landkreis Elbe-Elster;51.5549;13.5944
155;03238;Schacksdorf;Brandenburg;Landkreis Elbe-Elster;51.6151;13.7618
156;03238;Gorden;Brandenburg;Landkreis Elbe-Elster;51.5332;13.6269
157;03238;Finsterwalde;Brandenburg;Landkreis Elbe-Elster;51.6339;13.7066
158;03238;Lichterfeld;Brandenburg;Landkreis Elbe-Elster;51.5976;13.7781
159;03238;Lieskau;Brandenburg;Landkreis Elbe-Elster;51.6173;13.8086
160;03238;Fischwasser;Brandenburg;Landkreis Elbe-Elster;51.596;13.6121
161;03238;Sallgast;Brandenburg;Landkreis Elbe-Elster;51.5887;13.8486
162;03238;Betten;Brandenburg;Landkreis Elbe-Elster;51.6273;13.7674
163;03238;Schadewitz;Brandenburg;Landkreis Elbe-Elster;51.5607;13.4821
164;03238;Lugau;Brandenburg;Landkreis Elbe-Elster;51.6109;13.5979
165;03246;Crinitz;Brandenburg;Landkreis Elbe-Elster;51.7333;13.7667
166;03246;Gahro;Brandenburg;Landkreis Elbe-Elster;51.738;13.7246
167;03246;Babben;Brandenburg;Landkreis Elbe-Elster;51.7126;13.7856
168;03249;Goßmar;Brandenburg;Landkreis Elbe-Elster;51.6905;13.6829
169;03249;Bahren;Brandenburg;Landkreis Elbe-Elster;51.7;13.7167
170;03249;Breitenau;Brandenburg;Landkreis Elbe-Elster;51.6864;13.7241
171;03249;Sonnewalde;Brandenburg;Landkreis Elbe-Elster;51.6922;13.6473
172;03249;Großkrausnik;Brandenburg;Landkreis Elbe-Elster;51.7322;13.6271
173;03249;Zeckerin;Brandenburg;Landkreis Elbe-Elster;51.7112;13.6321
174;03249;Pahlsdorf;Brandenburg;Landkreis Elbe-Elster;51.7193;13.6486
175;03249;Kleinkrausnik;Brandenburg;Landkreis Elbe-Elster;51.7354;13.5932
176;03253;Frankena;Brandenburg;Landkreis Elbe-Elster;51.658;13.5932
177;03253;Tröbitz;Brandenburg;Landkreis Elbe-Elster;51.6;13.4333
178;03253;Werenzhain;Brandenburg;Landkreis Elbe-Elster;51.6546;13.5322
179;03253;Prießen;Brandenburg;Landkreis Elbe-Elster;51.6613;13.4301
180;03253;Schilda;Brandenburg;Landkreis Elbe-Elster;51.6;13.3833
181;03253;Brenitz;Brandenburg;Landkreis Elbe-Elster;51.7023;13.6007
182;03253;Schönborn;Brandenburg;Landkreis Elbe-Elster;51.6002;13.4897
183;03253;Hennersdorf;Brandenburg;Landkreis Elbe-Elster;51.6369;13.6069
184;03253;Buchhain;Brandenburg;Landkreis Elbe-Elster;51.6453;13.3898
185;03253;Dübrichen;Brandenburg;Landkreis Elbe-Elster;51.6686;13.4724
186;03253;Trebbus;Brandenburg;Landkreis Elbe-Elster;51.6924;13.5211
187;03253;Schönewalde;Brandenburg;Landkreis Elbe-Elster;51.679;13.6025
188;03253;Friedersdorf;Brandenburg;Landkreis Elbe-Elster;51.6985;13.5726
189;03253;Nexdorf;Brandenburg;Landkreis Elbe-Elster;51.6368;13.3715
190;03253;Arenzhain;Brandenburg;Landkreis Elbe-Elster;51.6735;13.5092
191;03253;Doberlug-Kirchhain;Brandenburg;Landkreis Elbe-Elster;51.6258;13.5623
192;04895;Falkenberg/Elster;Brandenburg;Landkreis Elbe-Elster;51.5875;13.2364
193;04910;Elsterwerda;Brandenburg;Landkreis Elbe-Elster;51.4604;13.52
194;04910;Haida;Brandenburg;Landkreis Elbe-Elster;51.4793;13.4679
195;04916;Werchau;Brandenburg;Landkreis Elbe-Elster;51.7782;13.3194
196;04916;Stolzenhain;Brandenburg;Landkreis Elbe-Elster;51.8441;13.1607
197;04916;Themesgrund;Brandenburg;Landkreis Elbe-Elster;51.7667;13.25
198;04916;Herzberg (Elster);Brandenburg;Landkreis Elbe-Elster;51.6833;13.2333
199;04916;Heideeck;Brandenburg;Landkreis Elbe-Elster;51.8333;13.2
200;04916;Wildberg;Brandenburg;Landkreis Elbe-Elster;51.7833;13.3167
201;04924;Bad Liebenwerda;Brandenburg;Landkreis Elbe-Elster;51.5183;13.3946
202;04924;Uebigau-Wahrenbrück;Brandenburg;Landkreis Elbe-Elster;51.5167;13.3333
203;04928;Kahla;Brandenburg;Landkreis Elbe-Elster;51.4678;13.5663
204;04928;Döllingen;Brandenburg;Landkreis Elbe-Elster;51.4837;13.5883
205;04928;Plessa;Brandenburg;Landkreis Elbe-Elster;51.4667;13.6167
206;04928;Schraden;Brandenburg;Landkreis Elbe-Elster;51.4253;13.6949
207;04931;Mühlberg (Elbe);Brandenburg;Landkreis Elbe-Elster;51.4333;13.2167
208;04932;Prösen;Brandenburg;Landkreis Elbe-Elster;51.4153;13.5501
209;04932;Großthiemig;Brandenburg;Landkreis Elbe-Elster;51.3833;13.6667
210;04932;Wainsdorf;Brandenburg;Landkreis Elbe-Elster;51.4094;13.5073
211;04932;Merzdorf;Brandenburg;Landkreis Elbe-Elster;51.4;13.5333
212;04932;Reichenhain;Brandenburg;Landkreis Elbe-Elster;51.4598;13.4287
213;04932;Hirschfeld;Brandenburg;Landkreis Elbe-Elster;51.3833;13.6167
214;04932;Gröden;Brandenburg;Landkreis Elbe-Elster;51.4;13.5667
215;04932;Saathain;Brandenburg;Landkreis Elbe-Elster;51.4632;13.4638
216;04934;Hohenleipisch;Brandenburg;Landkreis Elbe-Elster;51.5;13.55
217;04934;Dreska;Brandenburg;Landkreis Elbe-Elster;51.4853;13.538
218;04936;Wehrhain;Brandenburg;Landkreis Elbe-Elster;51.7213;13.4186
219;04936;Schlieben;Brandenburg;Landkreis Elbe-Elster;51.7238;13.383
220;04936;Hohenbucko;Brandenburg;Landkreis Elbe-Elster;51.7667;13.4667
221;04936;Kolochau;Brandenburg;Landkreis Elbe-Elster;51.7268;13.3177
222;04936;Freileben;Brandenburg;Landkreis Elbe-Elster;51.7833;13.4
223;04936;Lebusa;Brandenburg;Landkreis Elbe-Elster;51.7957;13.4207
224;04936;Jagsal;Brandenburg;Landkreis Elbe-Elster;51.6866;13.354
225;04936;Frankenhain;Brandenburg;Landkreis Elbe-Elster;51.7027;13.4154
226;04936;Malitschkendorf;Brandenburg;Landkreis Elbe-Elster;51.6945;13.3296
227;04936;Naundorf;Brandenburg;Landkreis Elbe-Elster;51.7374;13.4401
228;04936;Ölsig;Brandenburg;Landkreis Elbe-Elster;51.6833;13.375
229;04936;Stechau;Brandenburg;Landkreis Elbe-Elster;51.6974;13.4701
230;04936;Schöna-Kolpien;Brandenburg;Landkreis Elbe-Elster;51.825;13.45
231;04936;Hillmersdorf;Brandenburg;Landkreis Elbe-Elster;51.7091;13.4873
232;04936;Proßmarke;Brandenburg;Landkreis Elbe-Elster;51.7408;13.4913
233;04936;Körba;Brandenburg;Landkreis Elbe-Elster;51.8047;13.3877
234;04938;Uebigau-Wahrenbrück;Brandenburg;Landkreis Elbe-Elster;51.5167;13.3333
235;12529;Schönefeld;Brandenburg;Landkreis Dahme-Spreewald;52.389;13.5037
236;14461;Potsdam;Brandenburg;Kreisfreie Stadt Potsdam;52.4;13.0667
237;14467;Potsdam;Brandenburg;Kreisfreie Stadt Potsdam;52.403;13.0626
238;14469;Potsdam;Brandenburg;Kreisfreie Stadt Potsdam;52.4091;12.9899
239;14471;Potsdam;Brandenburg;Kreisfreie Stadt Potsdam;52.3744;13.0102
240;14473;Potsdam;Brandenburg;Kreisfreie Stadt Potsdam;52.3908;13.0645
241;14476;Golm;Brandenburg;Kreisfreie Stadt Potsdam;52.4062;12.967
242;14476;Groß Glienicke;Brandenburg;Kreisfreie Stadt Potsdam;52.4675;13.1079
243;14476;Neu Fahrland;Brandenburg;Kreisfreie Stadt Potsdam;52.4489;13.0492
244;14476;Satzkorn;Brandenburg;Kreisfreie Stadt Potsdam;52.4744;12.9899
245;14476;Uetz-Paaren;Brandenburg;Kreisfreie Stadt Potsdam;52.4726;12.9376
246;14476;Seeburg;Brandenburg;Landkreis Havelland;52.5097;13.1198
247;14476;Fahrland;Brandenburg;Kreisfreie Stadt Potsdam;52.4689;13.0117
248;14476;Marquardt;Brandenburg;Kreisfreie Stadt Potsdam;52.459;12.9663
249;14476;Töplitz;Brandenburg;Landkreis Potsdam-Mittelmark;52.4167;12.7944
250;14478;Potsdam;Brandenburg;Kreisfreie Stadt Potsdam;52.3725;13.0914
251;14480;Potsdam;Brandenburg;Kreisfreie Stadt Potsdam;52.3689;13.1273
252;14482;Potsdam;Brandenburg;Kreisfreie Stadt Potsdam;52.3871;13.0993
253;14513;Teltow;Brandenburg;Landkreis Potsdam-Mittelmark;52.4031;13.2601
254;14532;Philippsthal;Brandenburg;Landkreis Potsdam-Mittelmark;52.3336;13.1413
255;14532;Stahnsdorf;Brandenburg;Landkreis Potsdam-Mittelmark;52.3833;13.2167
256;14532;Fahlhorst;Brandenburg;Landkreis Potsdam-Mittelmark;52.3061;13.1626
257;14532;Nudow;Brandenburg;Landkreis Potsdam-Mittelmark;52.3283;13.1647
258;14532;Kleinmachnow;Brandenburg;Landkreis Potsdam-Mittelmark;52.4079;13.2251
259;14542;Schwielowsee;Brandenburg;Landkreis Potsdam-Mittelmark;52.3389;12.9722
260;14542;Werder (Havel);Brandenburg;Landkreis Potsdam-Mittelmark;52.3687;12.9188
261;14542;Kloster Lehnin;Brandenburg;Landkreis Potsdam-Mittelmark;52.3271;12.6625
262;14547;Stücken;Brandenburg;Landkreis Potsdam-Mittelmark;52.245;13.0792
263;14547;Beelitz;Brandenburg;Landkreis Potsdam-Mittelmark;52.2381;12.9714
264;14548;Schwielowsee;Brandenburg;Landkreis Potsdam-Mittelmark;52.3389;12.9722
265;14550;Schmergow;Brandenburg;Landkreis Potsdam-Mittelmark;52.454;12.8116
266;14550;Bochow;Brandenburg;Landkreis Potsdam-Mittelmark;52.381;12.7934
267;14550;Groß Kreutz;Brandenburg;Landkreis Potsdam-Mittelmark;52.4028;12.7794
268;14550;Deetz;Brandenburg;Landkreis Potsdam-Mittelmark;52.4466;12.7718
269;14550;Derwitz;Brandenburg;Landkreis Potsdam-Mittelmark;52.4029;12.8245
270;14550;Krielow;Brandenburg;Landkreis Potsdam-Mittelmark;52.4166;12.8034
271;14552;Fresdorf;Brandenburg;Landkreis Potsdam-Mittelmark;52.2703;13.0754
272;14552;Tremsdorf;Brandenburg;Landkreis Potsdam-Mittelmark;52.27;13.1198
273;14552;Saarmund;Brandenburg;Landkreis Potsdam-Mittelmark;52.3162;13.1251
274;14552;Michendorf;Brandenburg;Landkreis Potsdam-Mittelmark;52.3135;13.03
275;14552;Wildenbruch;Brandenburg;Landkreis Potsdam-Mittelmark;52.283;13.0617
276;14554;Seddiner See;Brandenburg;Landkreis Potsdam-Mittelmark;52.2722;13.0167
277;14557;Wilhelmshorst;Brandenburg;Landkreis Potsdam-Mittelmark;52.3318;13.0622
278;14557;Langerwisch;Brandenburg;Landkreis Potsdam-Mittelmark;52.3167;13.0667
279;14558;Bergholz-Rehbrücke;Brandenburg;Landkreis Potsdam-Mittelmark;52.3472;13.1053
280;14612;Falkensee;Brandenburg;Landkreis Havelland;52.5601;13.0927
281;14621;Schönwalde;Brandenburg;Landkreis Havelland;52.6192;13.1265
282;14624;Dallgow-Döberitz;Brandenburg;Landkreis Havelland;52.5427;13.0584
283;14627;Elstal;Brandenburg;Landkreis Havelland;52.5425;12.9879
284;14641;Bergerdamm;Brandenburg;Landkreis Havelland;52.6561;12.8039
285;14641;Börnicke;Brandenburg;Landkreis Havelland;52.686;12.9355
286;14641;Mühlenberge;Brandenburg;Landkreis Havelland;52.6667;12.6111
287;14641;Tietzow;Brandenburg;Landkreis Havelland;52.7125;12.9337
288;14641;Grünefeld;Brandenburg;Landkreis Havelland;52.6763;12.9646
289;14641;Wachow;Brandenburg;Landkreis Havelland;52.5337;12.7574
290;14641;Falkenrehde;Brandenburg;Landkreis Havelland;52.4963;12.9234
291;14641;Groß Behnitz;Brandenburg;Landkreis Havelland;52.5796;12.7329
292;14641;Etzin;Brandenburg;Landkreis Havelland;52.5177;12.8542
293;14641;Paaren im Glien;Brandenburg;Landkreis Havelland;52.6538;12.9876
294;14641;Klein Behnitz;Brandenburg;Landkreis Havelland;52.567;12.7083
295;14641;Perwenitz;Brandenburg;Landkreis Havelland;52.6585;13.0124
296;14641;Retzow;Brandenburg;Landkreis Havelland;52.6248;12.6855
297;14641;Paulinenaue;Brandenburg;Landkreis Havelland;52.677;12.7107
298;14641;Wustermark;Brandenburg;Landkreis Havelland;52.55;12.95
299;14641;Wansdorf;Brandenburg;Landkreis Havelland;52.6399;13.0869
300;14641;Kienberg;Brandenburg;Landkreis Havelland;52.663;12.9058
301;14641;Ribbeck;Brandenburg;Landkreis Havelland;52.6246;12.7514
302;14641;Berge;Brandenburg;Landkreis Havelland;52.6201;12.7951
303;14641;Selbelang;Brandenburg;Landkreis Havelland;52.6328;12.7138
304;14641;Zeestow;Brandenburg;Landkreis Havelland;52.573;12.9592
305;14641;Lietzow;Brandenburg;Landkreis Havelland;52.6153;12.8305
306;14641;Markee;Brandenburg;Landkreis Havelland;52.5791;12.872
307;14641;Nauen;Brandenburg;Landkreis Havelland;52.607;12.8737
308;14641;Pausin;Brandenburg;Landkreis Havelland;52.6389;13.0423
309;14641;Brädikow;Brandenburg;Landkreis Havelland;52.6898;12.65
310;14641;Tremmen;Brandenburg;Landkreis Havelland;52.5305;12.8181
311;14641;Bredow;Brandenburg;Landkreis Havelland;52.5887;12.9266
312;14641;Pessin;Brandenburg;Landkreis Havelland;52.6424;12.6668
313;14656;Brieselang;Brandenburg;Landkreis Havelland;52.5833;13.0
314;14662;Vietznitz;Brandenburg;Landkreis Havelland;52.7284;12.6256
315;14662;Warsow;Brandenburg;Landkreis Havelland;52.7113;12.6433
316;14662;Mühlenberge;Brandenburg;Landkreis Havelland;52.6667;12.6111
317;14662;Friesack;Brandenburg;Landkreis Havelland;52.7376;12.5797
318;14669;Ketzin;Brandenburg;Landkreis Havelland;52.4781;12.8453
319;14669;Zachow;Brandenburg;Landkreis Havelland;52.4837;12.7845
320;14712;Rathenow;Brandenburg;Landkreis Havelland;52.6066;12.337
321;14715;Stechow-Ferchesar;Brandenburg;Landkreis Havelland;52.6478;12.45
322;14715;Gräningen;Brandenburg;Landkreis Havelland;52.5789;12.4722
323;14715;Nennhausen;Brandenburg;Landkreis Havelland;52.6;12.5
324;14715;Landin;Brandenburg;Landkreis Havelland;52.6642;12.5353
325;14715;Großwudicke;Brandenburg;Landkreis Havelland;52.5929;12.2327
326;14715;Märkisch Luch Möthlow;Brandenburg;Landkreis Havelland;52.6;12.65
327;14715;Märkisch Luch Barnewitz;Brandenburg;Landkreis Havelland;52.5667;12.6167
328;14715;Zollchow;Brandenburg;Landkreis Havelland;52.5282;12.21
329;14715;Bamme;Brandenburg;Landkreis Havelland;52.583;12.4336
330;14715;Märkisch Luch Garlitz;Brandenburg;Landkreis Havelland;52.5667;12.5667
331;14715;Nitzahn;Brandenburg;Landkreis Havelland;52.4672;12.3608
332;14715;Vieritz;Brandenburg;Landkreis Havelland;52.5249;12.2564
333;14715;Märkisch Luch Buschow;Brandenburg;Landkreis Havelland;52.5833;12.6333
334;14715;Jerchel;Brandenburg;Landkreis Havelland;52.4876;12.3433
335;14715;Mützlitz;Brandenburg;Landkreis Havelland;52.5585;12.5108
336;14715;Kriele;Brandenburg;Landkreis Havelland;52.6551;12.5557
337;14715;Kotzen;Brandenburg;Landkreis Havelland;52.6333;12.5167
338;14715;Bützer;Brandenburg;Landkreis Havelland;52.5364;12.2995
339;14715;Möthlitz;Brandenburg;Landkreis Havelland;52.4755;12.3899
340;14715;Märkisch Luch;Brandenburg;Landkreis Havelland;52.5875;12.6167
341;14715;Liepe;Brandenburg;Landkreis Havelland;52.6135;12.6014
342;14715;Seeblick;Brandenburg;Landkreis Havelland;52.6722;12.3778
343;14715;Milow;Brandenburg;Landkreis Havelland;52.5195;12.3115
344;14715;Havelaue;Brandenburg;Landkreis Havelland;52.7167;12.2567
345;14727;Premnitz;Brandenburg;Landkreis Havelland;52.5318;12.3485
346;14727;Döberitz;Brandenburg;Landkreis Havelland;52.5222;12.3682
347;14728;Rhinow;Brandenburg;Landkreis Havelland;52.7509;12.3419
348;14728;Kleßen-Görne;Brandenburg;Landkreis Havelland;52.7167;12.5
349;14728;Havelaue;Brandenburg;Landkreis Havelland;52.7167;12.2567
350;14728;Gollenberg;Brandenburg;Landkreis Havelland;52.745;12.4
351;14770;Brandenburg an der Havel;Brandenburg;Kreisfreie Stadt Brandenburg an der Havel;52.4189;12.5228
352;14772;Brandenburg an der Havel;Brandenburg;Kreisfreie Stadt Brandenburg an der Havel;52.4358;12.5297
353;14774;Brandenburg an der Havel;Brandenburg;Kreisfreie Stadt Brandenburg an der Havel;52.3864;12.4144
354;14776;Brandenburg an der Havel;Brandenburg;Kreisfreie Stadt Brandenburg an der Havel;52.4043;12.568
355;14778;Wust;Brandenburg;Kreisfreie Stadt Brandenburg an der Havel;52.4147;12.6106
356;14778;Gollwitz;Brandenburg;Kreisfreie Stadt Brandenburg an der Havel;52.4195;12.6451
357;14778;Wollin;Brandenburg;Landkreis Potsdam-Mittelmark;52.2833;12.4667
358;14778;Wenzlow;Brandenburg;Landkreis Potsdam-Mittelmark;52.3;12.45
359;14778;Götz;Brandenburg;Landkreis Potsdam-Mittelmark;52.4197;12.7193
360;14778;Kloster Lehnin;Brandenburg;Landkreis Potsdam-Mittelmark;52.3271;12.6625
361;14778;Golzow;Brandenburg;Landkreis Potsdam-Mittelmark;52.2762;12.6005
362;14778;Schenkenberg;Brandenburg;Landkreis Potsdam-Mittelmark;52.3904;12.7112
363;14778;Beetzsee;Brandenburg;Landkreis Potsdam-Mittelmark;52.4833;12.5611
364;14778;Havelsee;Brandenburg;Landkreis Potsdam-Mittelmark;52.4929;12.4667
365;14778;Jeserig;Brandenburg;Landkreis Potsdam-Mittelmark;52.0859;12.4511
366;14778;Päwesin;Brandenburg;Landkreis Potsdam-Mittelmark;52.5167;12.7167
367;14778;Beetzseeheide;Brandenburg;Landkreis Potsdam-Mittelmark;52.4917;12.6125
368;14778;Roskow;Brandenburg;Landkreis Potsdam-Mittelmark;52.4724;12.7189
369;14778;Planetal;Brandenburg;Landkreis Potsdam-Mittelmark;52.1167;12.6767
370;14778;Planebruch;Brandenburg;Landkreis Potsdam-Mittelmark;52.2542;12.6875
371;14778;Trechwitz;Brandenburg;Landkreis Potsdam-Mittelmark;52.3662;12.7192
372;14789;Wusterwitz;Brandenburg;Landkreis Potsdam-Mittelmark;52.3667;12.3849
373;14789;Rosenau;Brandenburg;Landkreis Potsdam-Mittelmark;52.3292;12.3583
374;14789;Bensdorf;Brandenburg;Landkreis Potsdam-Mittelmark;52.4167;12.3333
375;14793;Buckautal;Brandenburg;Landkreis Potsdam-Mittelmark;52.2333;12.3222
376;14793;Gräben;Brandenburg;Landkreis Potsdam-Mittelmark;52.2333;12.4333
377;14793;Rottstock;Brandenburg;Landkreis Potsdam-Mittelmark;52.1989;12.3523
378;14793;Ziesar;Brandenburg;Landkreis Potsdam-Mittelmark;52.2405;12.3471
379;14797;Kloster Lehnin;Brandenburg;Landkreis Potsdam-Mittelmark;52.3271;12.6625
380;14798;Havelsee;Brandenburg;Landkreis Potsdam-Mittelmark;52.4929;12.4667
381;14806;Schwanebeck;Brandenburg;Landkreis Potsdam-Mittelmark;52.1765;12.6272
382;14806;Hagelberg;Brandenburg;Landkreis Potsdam-Mittelmark;52.1386;12.5196
383;14806;Belzig;Brandenburg;Landkreis Potsdam-Mittelmark;52.1333;12.6
384;14806;Planetal;Brandenburg;Landkreis Potsdam-Mittelmark;52.1167;12.6767
385;14822;Borkwalde;Brandenburg;Landkreis Potsdam-Mittelmark;52.25;12.8333
386;14822;Borkheide;Brandenburg;Landkreis Potsdam-Mittelmark;52.2167;12.85
387;14822;Planebruch;Brandenburg;Landkreis Potsdam-Mittelmark;52.2542;12.6875
388;14822;Linthe;Brandenburg;Landkreis Potsdam-Mittelmark;52.1975;12.7851
389;14822;Brück;Brandenburg;Landkreis Potsdam-Mittelmark;52.1977;12.7687
390;14822;Mühlenfließ;Brandenburg;Landkreis Potsdam-Mittelmark;52.1194;12.7917
391;14823;Niemegk;Brandenburg;Landkreis Potsdam-Mittelmark;52.0531;12.6185
392;14823;Mühlenfließ;Brandenburg;Landkreis Potsdam-Mittelmark;52.1194;12.7917
393;14823;Rabenstein/Fläming;Brandenburg;Landkreis Potsdam-Mittelmark;52.0333;12.6313
394;14827;Wiesenburg;Brandenburg;Landkreis Potsdam-Mittelmark;52.1146;12.4553
395;14828;Görzke;Brandenburg;Landkreis Potsdam-Mittelmark;52.1718;12.3751
396;14913;Niedergörsdorf;Brandenburg;Landkreis Teltow-Fläming;51.9794;12.9854
397;14913;Jüterbog;Brandenburg;Landkreis Teltow-Fläming;51.9961;13.0798
398;14913;Niebendorf-Heinsdorf;Brandenburg;Landkreis Teltow-Fläming;51.9333;13.3333
399;14913;Wahlsdorf;Brandenburg;Landkreis Teltow-Fläming;51.9562;13.3278
400;14913;Herbersdorf;Brandenburg;Landkreis Teltow-Fläming;51.8618;13.295
401;14913;Ihlow;Brandenburg;Landkreis Teltow-Fläming;51.8672;13.3377
402;14913;Hohenseefeld;Brandenburg;Landkreis Teltow-Fläming;51.8895;13.305
403;14913;Nuthe-Urstromtal;Brandenburg;Landkreis Teltow-Fläming;52.1116;13.2152
404;14913;Niederer Fläming;Brandenburg;Landkreis Teltow-Fläming;51.9025;13.2092
405;14929;Treuenbrietzen;Brandenburg;Landkreis Potsdam-Mittelmark;52.0975;12.8726
406;14943;Lühsdorf;Brandenburg;Landkreis Potsdam-Mittelmark;52.1564;12.9703
407;14943;Luckenwalde;Brandenburg;Landkreis Teltow-Fläming;52.0903;13.1677
408;14943;Lüdersdorf;Brandenburg;Landkreis Teltow-Fläming;52.1858;13.2899
409;14947;Nuthe-Urstromtal;Brandenburg;Landkreis Teltow-Fläming;52.1116;13.2152
410;14959;Schönhagen;Brandenburg;Landkreis Teltow-Fläming;52.213;13.1464
411;14959;Trebbin;Brandenburg;Landkreis Teltow-Fläming;52.2168;13.225
412;14974;Thyrow;Brandenburg;Landkreis Teltow-Fläming;52.2526;13.2396
413;14974;Ludwigsfelde;Brandenburg;Landkreis Teltow-Fläming;52.3032;13.254
414;14979;Großbeeren;Brandenburg;Landkreis Teltow-Fläming;52.3586;13.3099
415;15230;Frankfurt (Oder);Brandenburg;Frankfurt (Oder);52.3475;14.5539
416;15232;Frankfurt (Oder);Brandenburg;Frankfurt (Oder);52.3241;14.5325
417;15234;Frankfurt (Oder);Brandenburg;Frankfurt (Oder);52.3646;14.5244
418;15236;Jacobsdorf Jacobsdorf;Brandenburg;Landkreis Oder-Spree;52.3345;14.4179
419;15236;Jacobsdorf Pillgram;Brandenburg;Landkreis Oder-Spree;52.3333;14.4
420;15236;Treplin;Brandenburg;Landkreis Märkisch-Oderland;52.4;14.4
421;15236;Jacobsdorf;Brandenburg;Landkreis Oder-Spree;52.3333;14.35
422;15236;Jacobsdorf Sieversdorf;Brandenburg;Landkreis Oder-Spree;52.3833;14.3667
423;15236;Frankfurt (Oder);Brandenburg;Frankfurt (Oder);52.35;14.55
424;15236;Jacobsdorf Petersdorf bei Briesen;Brandenburg;Landkreis Oder-Spree;52.3667;14.35
425;15295;Brieskow-Finkenheerd;Brandenburg;Landkreis Oder-Spree;52.2539;14.5728
426;15295;Groß Lindow;Brandenburg;Landkreis Oder-Spree;52.2333;14.5333
427;15295;Wiesenau;Brandenburg;Landkreis Oder-Spree;52.2307;14.5911
428;15295;Ziltendorf Aurith;Brandenburg;Landkreis Oder-Spree;52.25;14.6833
429;15295;Groß Lindow Schlaubehammer;Brandenburg;Landkreis Oder-Spree;52.25;14.4833
430;15295;Ziltendorf;Brandenburg;Landkreis Oder-Spree;52.2061;14.6241
431;15295;Ziltendorf Ernst-Thälmann-Siedlung;Brandenburg;Landkreis Oder-Spree;52.2333;14.6333
432;15295;Groß Lindow Weißenspring;Brandenburg;Landkreis Oder-Spree;52.2333;14.5167
433;15299;Dammendorf;Brandenburg;Landkreis Oder-Spree;52.1408;14.416
434;15299;Müllrose;Brandenburg;Landkreis Oder-Spree;52.2474;14.4179
435;15299;Mixdorf;Brandenburg;Landkreis Oder-Spree;52.2;14.4
436;15299;Grunow-Dammendorf;Brandenburg;Landkreis Oder-Spree;52.15;14.4083
437;15299;Grunow-Dammendorf Grunow;Brandenburg;Landkreis Oder-Spree;52.15;14.4
438;15306;Vierlinden Diedersdorf;Brandenburg;Landkreis Märkisch-Oderland;52.5121;14.3311
439;15306;Werbig;Brandenburg;Landkreis Märkisch-Oderland;52.5617;14.3848
440;15306;Vierlinden Görlsdorf;Brandenburg;Landkreis Märkisch-Oderland;52.5299;14.3107
441;15306;Vierlinden Marxdorf;Brandenburg;Landkreis Märkisch-Oderland;52.483;14.28
442;15306;Falkenhagen;Brandenburg;Landkreis Märkisch-Oderland;52.4333;14.3167
443;15306;Vierlinden Neuentempel;Brandenburg;Landkreis Märkisch-Oderland;52.502;14.3265
444;15306;Seelow;Brandenburg;Landkreis Märkisch-Oderland;52.5339;14.3813
445;15306;Lietzen;Brandenburg;Landkreis Märkisch-Oderland;52.4699;14.3401
446;15306;Vierlinden Worin;Brandenburg;Landkreis Märkisch-Oderland;52.5206;14.2749
447;15306;Lindendorf;Brandenburg;Landkreis Märkisch-Oderland;52.4899;14.4285
448;15306;Vierlinden Friedersdorf;Brandenburg;Landkreis Märkisch-Oderland;52.5102;14.3987
449;15306;Gusow-Platkow Gusow;Brandenburg;Landkreis Märkisch-Oderland;52.5719;14.3556
450;15306;Vierlinden;Brandenburg;Landkreis Märkisch-Oderland;52.515;14.3141
451;15306;Lindendorf Neu Mahlisch;Brandenburg;Landkreis Märkisch-Oderland;52.4802;14.3898
452;15306;Lindendorf Libbenichen;Brandenburg;Landkreis Märkisch-Oderland;52.4775;14.4367
453;15306;Fichtenhöhe Alt Mahlisch;Brandenburg;Landkreis Märkisch-Oderland;52.4641;14.4209
454;15306;Lindendorf Dolgelin;Brandenburg;Landkreis Märkisch-Oderland;52.4955;14.4071
455;15306;Vierlinden Alt Rosenthal;Brandenburg;Landkreis Märkisch-Oderland;52.5471;14.277
456;15306;Gusow-Platkow;Brandenburg;Landkreis Märkisch-Oderland;52.5777;14.34
457;15306;Lindendorf Sachsendorf;Brandenburg;Landkreis Märkisch-Oderland;52.5063;14.4804
458;15306;Gusow-Platkow Platkow;Brandenburg;Landkreis Märkisch-Oderland;52.5835;14.3244
459;15306;Fichtenhöhe;Brandenburg;Landkreis Märkisch-Oderland;52.4556;14.4469
460;15306;Fichtenhöhe Niederjesar;Brandenburg;Landkreis Märkisch-Oderland;52.4449;14.4324
461;15320;Sietzing;Brandenburg;Landkreis Märkisch-Oderland;52.6594;14.286
462;15320;Neutrebbin Alttrebbin;Brandenburg;Landkreis Märkisch-Oderland;52.6908;14.2481
463;15320;Neuhardenberg Quappendorf;Brandenburg;Landkreis Märkisch-Oderland;52.6186;14.2669
464;15320;Neuhardenberg;Brandenburg;Landkreis Märkisch-Oderland;52.596;14.2377
465;15320;Neuhardenberg Neuhardenberg;Brandenburg;Landkreis Märkisch-Oderland;52.5955;14.2402
466;15320;Neutrebbin Neutrebbin;Brandenburg;Landkreis Märkisch-Oderland;52.6667;14.2333
467;15320;Neuhardenberg Wulkow bei Trebnitz;Brandenburg;Landkreis Märkisch-Oderland;52.5697;14.2351
468;15320;Neutrebbin;Brandenburg;Landkreis Märkisch-Oderland;52.6648;14.228
469;15320;Neuhardenberg Altfriedland;Brandenburg;Landkreis Märkisch-Oderland;52.6274;14.2135
470;15320;Neutrebbin Altbarnim;Brandenburg;Landkreis Märkisch-Oderland;52.6857;14.2808
471;15324;Gieshof-Zelliner Loose;Brandenburg;Landkreis Märkisch-Oderland;52.7237;14.3174
472;15324;Neubarnim;Brandenburg;Landkreis Märkisch-Oderland;52.7025;14.3056
473;15324;Letschin;Brandenburg;Landkreis Märkisch-Oderland;52.6438;14.3601
474;15324;Ortwig;Brandenburg;Landkreis Märkisch-Oderland;52.7039;14.3562
475;15324;Kiehnwerder;Brandenburg;Landkreis Märkisch-Oderland;52.6316;14.303
476;15324;Kienitz;Brandenburg;Landkreis Märkisch-Oderland;52.6731;14.4389
477;15324;Groß Neuendorf;Brandenburg;Landkreis Märkisch-Oderland;52.7005;14.4081
478;15326;Lebus Wulkow;Brandenburg;Landkreis Märkisch-Oderland;52.4021;14.4715
479;15326;Podelzig;Brandenburg;Landkreis Märkisch-Oderland;52.4717;14.5347
480;15326;Lebus;Brandenburg;Landkreis Märkisch-Oderland;52.4272;14.5323
481;15326;Lebus Lebus;Brandenburg;Landkreis Märkisch-Oderland;52.4236;14.533
482;15326;Zeschdorf;Brandenburg;Landkreis Märkisch-Oderland;52.4213;14.3875
483;15326;Zeschdorf Alt Zeschdorf;Brandenburg;Landkreis Märkisch-Oderland;52.4248;14.4465
484;15326;Lebus Mallnow;Brandenburg;Landkreis Märkisch-Oderland;52.456;14.4926
485;15326;Fichtenhöhe;Brandenburg;Landkreis Märkisch-Oderland;52.4556;14.4469
486;15326;Zeschdorf Döbberin;Brandenburg;Landkreis Märkisch-Oderland;52.4414;14.3736
487;15326;Zeschdorf Petershagen;Brandenburg;Landkreis Märkisch-Oderland;52.3978;14.3425
488;15326;Lebus Schönfließ;Brandenburg;Landkreis Märkisch-Oderland;52.4212;14.4735
489;15326;Fichtenhöhe Carzig;Brandenburg;Landkreis Märkisch-Oderland;52.4579;14.4875
490;15328;Zechin;Brandenburg;Landkreis Märkisch-Oderland;52.6084;14.4525
491;15328;Küstriner Vorland;Brandenburg;Landkreis Märkisch-Oderland;52.5624;14.5728
492;15328;Golzow;Brandenburg;Landkreis Märkisch-Oderland;52.574;14.493
493;15328;Zechin Zechin;Brandenburg;Landkreis Märkisch-Oderland;52.6124;14.4579
494;15328;Alt Tucheband Ratstock;Brandenburg;Landkreis Märkisch-Oderland;52.5215;14.5412
495;15328;Alt Tucheband;Brandenburg;Landkreis Märkisch-Oderland;52.5373;14.5123
496;15328;Zechin Buschdorf;Brandenburg;Landkreis Märkisch-Oderland;52.6023;14.4403
497;15328;Bleyen-Genschmar Bleyen;Brandenburg;Landkreis Märkisch-Oderland;52.588;14.6105
498;15328;Reitwein;Brandenburg;Landkreis Märkisch-Oderland;52.5009;14.5817
499;15328;Küstriner Vorland Küstrin-Kietz;Brandenburg;Landkreis Märkisch-Oderland;52.5668;14.6105
500;15328;Zechin Friedrichsaue;Brandenburg;Landkreis Märkisch-Oderland;52.5982;14.4726
501;15328;Alt Tucheband Alt Tucheband;Brandenburg;Landkreis Märkisch-Oderland;52.5386;14.5134
502;15328;Bleyen-Genschmar;Brandenburg;Landkreis Märkisch-Oderland;52.6017;14.5646
503;15328;Küstriner Vorland Gorgast;Brandenburg;Landkreis Märkisch-Oderland;52.5682;14.5515
504;15328;Küstriner Vorland Manschnow;Brandenburg;Landkreis Märkisch-Oderland;52.5521;14.5564
505;15328;Alt Tucheband Hathenow;Brandenburg;Landkreis Märkisch-Oderland;52.5041;14.5357
506;15328;Bleyen-Genschmar Genschmar;Brandenburg;Landkreis Märkisch-Oderland;52.6155;14.5187
507;15344;Strausberg;Brandenburg;Landkreis Märkisch-Oderland;52.5786;13.8874
508;15345;Rehfelde Rehfelde;Brandenburg;Landkreis Märkisch-Oderland;52.5368;13.9156
509;15345;Werder;Brandenburg;Landkreis Märkisch-Oderland;52.52;13.9442
510;15345;Petershagen-Eggersdorf;Brandenburg;Landkreis Märkisch-Oderland;52.525;13.8
511;15345;Altlandsberg;Brandenburg;Landkreis Märkisch-Oderland;52.565;13.7281
512;15345;Rehfelde;Brandenburg;Landkreis Märkisch-Oderland;52.5342;13.9088
513;15345;Lichtenow;Brandenburg;Landkreis Märkisch-Oderland;52.4797;13.9114
514;15345;Oberbarnim Klosterdorf;Brandenburg;Landkreis Märkisch-Oderland;52.5914;13.9569
515;15345;Prötzel;Brandenburg;Landkreis Märkisch-Oderland;52.6372;13.9878
516;15345;Prötzel Prädikow;Brandenburg;Landkreis Märkisch-Oderland;52.6159;14.0177
517;15345;Rehfelde Werder;Brandenburg;Landkreis Märkisch-Oderland;52.5205;13.9462
518;15345;Rehfelde Zinndorf;Brandenburg;Landkreis Märkisch-Oderland;52.5027;13.9256
519;15345;Garzau-Garzin Garzin;Brandenburg;Landkreis Märkisch-Oderland;52.5457;13.9822
520;15345;Zinndorf;Brandenburg;Landkreis Märkisch-Oderland;52.5015;13.9225
521;15345;Reichenow-Möglin Reichenow;Brandenburg;Landkreis Märkisch-Oderland;52.647;14.0775
522;15345;Prötzel Sternebeck;Brandenburg;Landkreis Märkisch-Oderland;52.6748;13.9937
523;15345;Garzau-Garzin Garzau;Brandenburg;Landkreis Märkisch-Oderland;52.5307;13.9511
524;15345;Oberbarnim;Brandenburg;Landkreis Märkisch-Oderland;52.5938;14.0355
525;15345;Prötzel Prötzel;Brandenburg;Landkreis Märkisch-Oderland;52.6391;13.9895
526;15345;Garzau-Garzin;Brandenburg;Landkreis Märkisch-Oderland;52.5382;13.9667
527;15345;Prötzel Harnekop;Brandenburg;Landkreis Märkisch-Oderland;52.6844;14.0137
528;15345;Reichenow-Möglin Möglin;Brandenburg;Landkreis Märkisch-Oderland;52.6653;14.11
529;15345;Reichenow-Möglin;Brandenburg;Landkreis Märkisch-Oderland;52.6562;14.0937
530;15366;Hönow;Brandenburg;Landkreis Märkisch-Oderland;52.5467;13.6376
531;15366;Dahlwitz-Hoppegarten;Brandenburg;Landkreis Märkisch-Oderland;52.5167;13.6667
532;15366;Neuenhagen bei Berlin;Brandenburg;Landkreis Märkisch-Oderland;52.5333;13.6833
533;15366;Münchehofe;Brandenburg;Landkreis Märkisch-Oderland;52.5562;14.1376
534;15370;Fredersdorf-Vogelsdorf;Brandenburg;Landkreis Märkisch-Oderland;52.5;13.7333
535;15370;Petershagen-Eggersdorf;Brandenburg;Landkreis Märkisch-Oderland;52.525;13.8
536;15372;Müncheberg;Brandenburg;Landkreis Märkisch-Oderland;52.5;14.1333
537;15374;Müncheberg;Brandenburg;Landkreis Märkisch-Oderland;52.5114;14.1359
538;15377;Oberbarnim Grunow;Brandenburg;Landkreis Märkisch-Oderland;52.6028;14.032
539;15377;Buckow;Brandenburg;Landkreis Märkisch-Oderland;52.5661;14.0743
540;15377;Oberbarnim;Brandenburg;Landkreis Märkisch-Oderland;52.5938;14.0355
541;15377;Waldsieversdorf;Brandenburg;Landkreis Märkisch-Oderland;52.5422;14.0702
542;15377;Märkische Höhe;Brandenburg;Landkreis Märkisch-Oderland;52.6199;14.1292
543;15377;Ihlow;Brandenburg;Landkreis Märkisch-Oderland;52.619;14.0708
544;15377;Märkische Höhe Batzlow;Brandenburg;Landkreis Märkisch-Oderland;52.6316;14.125
545;15377;Märkische Höhe Ringenwalde;Brandenburg;Landkreis Märkisch-Oderland;52.6173;14.1459
546;15377;Märkische Höhe Reichenberg;Brandenburg;Landkreis Märkisch-Oderland;52.6109;14.1165
547;15377;Oberbarnim Bollersdorf, Pritzhagen;Brandenburg;Landkreis Märkisch-Oderland;52.59;14.1038
548;15377;Oberbarnim Bollersdorf, Bollersdorf;Brandenburg;Landkreis Märkisch-Oderland;52.5818;14.0528
549;15377;Oberbarnim Grunow, Ernsthof;Brandenburg;Landkreis Märkisch-Oderland;52.5996;14.0261
550;15377;Oberbarnim Bollersdorf;Brandenburg;Landkreis Märkisch-Oderland;52.5859;14.0783
551;15377;Oberbarnim Grunow, Grunow;Brandenburg;Landkreis Märkisch-Oderland;52.606;14.0379
552;15378;Herzfelde;Brandenburg;Landkreis Märkisch-Oderland;52.4816;13.8521
553;15378;Hennickendorf;Brandenburg;Landkreis Märkisch-Oderland;52.5077;13.8521
554;15517;Fürstenwalde/Spree Trebus;Brandenburg;Landkreis Oder-Spree;52.4;14.05
555;15517;Fürstenwalde/Spree;Brandenburg;Landkreis Oder-Spree;52.3833;14.0583
556;15517;Fürstenwalde/Spree Fürstenwalde;Brandenburg;Landkreis Oder-Spree;52.3638;14.0467
557;15518;Falkenberg;Brandenburg;Landkreis Oder-Spree;52.3809;14.2353
558;15518;Steinhöfel Beerfelde;Brandenburg;Landkreis Oder-Spree;52.4333;14.05
559;15518;Steinhöfel Steinhöfel;Brandenburg;Landkreis Oder-Spree;52.4;14.1667
560;15518;Steinhöfel Gölsdorf;Brandenburg;Landkreis Oder-Spree;52.45;14.1
561;15518;Steinhöfel Heinersdorf;Brandenburg;Landkreis Oder-Spree;52.45;14.2167
562;15518;Steinhöfel Demnitz;Brandenburg;Landkreis Oder-Spree;52.3833;14.2
563;15518;Steinhöfel;Brandenburg;Landkreis Oder-Spree;52.4;14.1667
564;15518;Steinhöfel Jänickendorf;Brandenburg;Landkreis Oder-Spree;52.4333;14.0167
565;15518;Steinhöfel Hasenfelde;Brandenburg;Landkreis Oder-Spree;52.4167;14.2167
566;15518;Langewahl;Brandenburg;Landkreis Oder-Spree;52.3333;14.1
567;15518;Steinhöfel Buchholz;Brandenburg;Landkreis Oder-Spree;52.4167;14.1167
568;15518;Berkenbrück;Brandenburg;Landkreis Oder-Spree;52.35;14.15
569;15518;Briesen (Mark);Brandenburg;Landkreis Oder-Spree;52.325;14.3
570;15518;Steinhöfel Tempelberg;Brandenburg;Landkreis Oder-Spree;52.45;14.1667
571;15518;Steinhöfel Arensdorf;Brandenburg;Landkreis Oder-Spree;52.4333;14.25
572;15518;Briesen (Mark) Biegen;Brandenburg;Landkreis Oder-Spree;52.3167;14.3667
573;15518;Rauen;Brandenburg;Landkreis Oder-Spree;52.3323;14.028
574;15518;Grünheide (Mark) Hangelsberg;Brandenburg;Landkreis Oder-Spree;52.3833;13.9333
575;15518;Steinhöfel Schönfelde;Brandenburg;Landkreis Oder-Spree;52.4667;14.05
576;15518;Madlitz-Wilmersdorf Falkenberg;Brandenburg;Landkreis Oder-Spree;52.3811;14.2389
577;15518;Briesen (Mark) Briesen (Mark);Brandenburg;Landkreis Oder-Spree;52.3333;14.2833
578;15518;Madlitz-Wilmersdorf Wilmersdorf;Brandenburg;Landkreis Oder-Spree;52.4;14.2667
579;15518;Madlitz-Wilmersdorf Alt Madlitz;Brandenburg;Landkreis Oder-Spree;52.3833;14.2833
580;15518;Madlitz-Wilmersdorf;Brandenburg;Landkreis Oder-Spree;52.3881;14.263
581;15518;Grünheide (Mark);Brandenburg;Landkreis Oder-Spree;52.4111;13.8889
582;15518;Steinhöfel Neuendorf im Sande;Brandenburg;Landkreis Oder-Spree;52.3833;14.1
583;15526;Bad Saarow;Brandenburg;Landkreis Oder-Spree;52.2833;14.0667
584;15526;Reichenwalde Dahmsdorf;Brandenburg;Landkreis Oder-Spree;52.2333;13.9833
585;15526;Reichenwalde Kolpin;Brandenburg;Landkreis Oder-Spree;52.2833;13.9833
586;15526;Reichenwalde;Brandenburg;Landkreis Oder-Spree;52.2667;14.0
587;15526;Rietz-Neuendorf;Brandenburg;Landkreis Oder-Spree;52.2321;14.1619
588;15526;Reichenwalde Reichenwalde;Brandenburg;Landkreis Oder-Spree;52.2667;14.0
589;15526;Bad Saarow Neu Golm;Brandenburg;Landkreis Oder-Spree;52.3;14.1
590;15526;Rietz-Neuendorf Alt Golm;Brandenburg;Landkreis Oder-Spree;52.3;14.1167
591;15526;Bad Saarow Bad Saarow;Brandenburg;Landkreis Oder-Spree;52.2833;14.0667
592;15526;Bad Saarow Petersdorf;Brandenburg;Landkreis Oder-Spree;52.3167;14.0833
593;15528;Spreenhagen;Brandenburg;Landkreis Oder-Spree;52.3432;13.8766
594;15528;Spreenhagen Spreenhagen;Brandenburg;Landkreis Oder-Spree;52.324;13.8991
595;15528;Spreenhagen Markgrafpieske;Brandenburg;Landkreis Oder-Spree;52.3333;13.95
596;15528;Spreenhagen Hartmannsdorf;Brandenburg;Landkreis Oder-Spree;52.3667;13.85
597;15528;Grünheide (Mark) Spreeau;Brandenburg;Landkreis Oder-Spree;52.3667;13.8333
598;15528;Spreenhagen Braunsdorf;Brandenburg;Landkreis Oder-Spree;52.3667;13.9667
599;15528;Grünheide (Mark) Mönchwinkel;Brandenburg;Landkreis Oder-Spree;52.3833;13.8833
600;15528;Grünheide (Mark);Brandenburg;Landkreis Oder-Spree;52.4111;13.8889
601;15537;Grünheide (Mark);Brandenburg;Landkreis Oder-Spree;52.4111;13.8889
602;15537;Wernsdorf;Brandenburg;Landkreis Dahme-Spreewald;52.3691;13.703
603;15537;Gosen Neu Zittau;Brandenburg;Landkreis Oder-Spree;52.3667;13.75
604;15537;Gosen Gosen;Brandenburg;Landkreis Oder-Spree;52.4;13.7167
605;15537;Grünheide (Mark) Kagel;Brandenburg;Landkreis Oder-Spree;52.4667;13.9167
606;15537;Grünheide (Mark) Kienbaum;Brandenburg;Landkreis Oder-Spree;52.45;13.95
607;15537;Grünheide (Mark) Grünheide;Brandenburg;Landkreis Oder-Spree;52.4167;13.8167
608;15537;Erkner;Brandenburg;Landkreis Oder-Spree;52.42;13.7544
609;15562;Rüdersdorf bei Berlin;Brandenburg;Landkreis Märkisch-Oderland;52.4707;13.7736
610;15566;Schöneiche bei Berlin;Brandenburg;Landkreis Oder-Spree;52.4598;13.7054
611;15569;Woltersdorf;Brandenburg;Landkreis Oder-Spree;52.446;13.756
612;15711;Zeesen;Brandenburg;Landkreis Dahme-Spreewald;52.2788;13.6376
613;15711;Schenkendorf;Brandenburg;Landkreis Dahme-Spreewald;52.2779;13.5948
614;15711;Königs Wusterhausen;Brandenburg;Landkreis Dahme-Spreewald;52.3014;13.633
615;15732;Schulzendorf;Brandenburg;Landkreis Dahme-Spreewald;52.3582;13.5984
616;15732;Eichwalde;Brandenburg;Landkreis Dahme-Spreewald;52.3667;13.6167
617;15732;Waltersdorf;Brandenburg;Landkreis Dahme-Spreewald;52.3623;13.5565
618;15738;Zeuthen;Brandenburg;Landkreis Dahme-Spreewald;52.348;13.6217
619;15741;Motzen;Brandenburg;Landkreis Dahme-Spreewald;52.2039;13.5834
620;15741;Gräbendorf;Brandenburg;Landkreis Dahme-Spreewald;52.2405;13.7088
621;15741;Pätz;Brandenburg;Landkreis Dahme-Spreewald;52.2251;13.6589
622;15741;Bestensee;Brandenburg;Landkreis Dahme-Spreewald;52.2398;13.6373
623;15745;Wildau;Brandenburg;Landkreis Dahme-Spreewald;52.3167;13.6333
624;15746;Groß Köris;Brandenburg;Landkreis Dahme-Spreewald;52.1659;13.6594
625;15748;Märkisch Buchholz;Brandenburg;Landkreis Dahme-Spreewald;52.1096;13.7654
626;15748;Münchehofe;Brandenburg;Landkreis Dahme-Spreewald;52.1473;13.8343
627;15749;Ragow;Brandenburg;Landkreis Dahme-Spreewald;52.2866;13.5445
628;15749;Mittenwalde;Brandenburg;Landkreis Dahme-Spreewald;52.3024;13.5355
629;15749;Brusendorf;Brandenburg;Landkreis Dahme-Spreewald;52.3099;13.5114
630;15749;Gallun;Brandenburg;Landkreis Dahme-Spreewald;52.2448;13.5606
631;15749;Kiekebusch;Brandenburg;Landkreis Dahme-Spreewald;52.3461;13.5515
632;15751;Niederlehme;Brandenburg;Landkreis Dahme-Spreewald;52.3171;13.6504
633;15752;Kolberg;Brandenburg;Landkreis Dahme-Spreewald;52.2439;13.8052
634;15752;Streganz;Brandenburg;Landkreis Dahme-Spreewald;52.2022;13.8371
635;15752;Prieros;Brandenburg;Landkreis Dahme-Spreewald;52.224;13.7708
636;15754;Dolgenbrodt;Brandenburg;Landkreis Dahme-Spreewald;52.243;13.7693
637;15754;Wolzig;Brandenburg;Landkreis Dahme-Spreewald;52.2673;13.8376
638;15754;Gussow;Brandenburg;Landkreis Dahme-Spreewald;52.256;13.7321
639;15754;Bindow;Brandenburg;Landkreis Dahme-Spreewald;52.2841;13.7431
640;15754;Blossin;Brandenburg;Landkreis Dahme-Spreewald;52.2573;13.7992
641;15754;Senzig;Brandenburg;Landkreis Dahme-Spreewald;52.2891;13.6997
642;15754;Friedersdorf;Brandenburg;Landkreis Dahme-Spreewald;52.2948;13.7889
643;15754;Dannenreich;Brandenburg;Landkreis Dahme-Spreewald;52.3137;13.7484
644;15755;Töpchin;Brandenburg;Landkreis Dahme-Spreewald;52.1715;13.5771
645;15755;Teupitz;Brandenburg;Landkreis Dahme-Spreewald;52.1297;13.6196
646;15755;Schwerin;Brandenburg;Landkreis Dahme-Spreewald;52.15;13.6333
647;15757;Halbe;Brandenburg;Landkreis Dahme-Spreewald;52.1167;13.7
648;15757;Oderin;Brandenburg;Landkreis Dahme-Spreewald;52.0746;13.7251
649;15757;Freidorf;Brandenburg;Landkreis Dahme-Spreewald;52.0683;13.6962
650;15757;Briesen;Brandenburg;Landkreis Dahme-Spreewald;52.0532;13.7132
651;15757;Löpten;Brandenburg;Landkreis Dahme-Spreewald;52.1471;13.6851
652;15758;Zernsdorf;Brandenburg;Landkreis Dahme-Spreewald;52.3036;13.6969
653;15758;Kablow;Brandenburg;Landkreis Dahme-Spreewald;52.2973;13.7179
654;15806;Gadsdorf;Brandenburg;Landkreis Teltow-Fläming;52.1904;13.3246
655;15806;Mellensee;Brandenburg;Landkreis Teltow-Fläming;52.1833;13.43
656;15806;Glienick;Brandenburg;Landkreis Teltow-Fläming;52.2516;13.3806
657;15806;Groß Schulzendorf;Brandenburg;Landkreis Teltow-Fläming;52.2729;13.3511
658;15806;Nunsdorf;Brandenburg;Landkreis Teltow-Fläming;52.2294;13.3151
659;15806;Zossen;Brandenburg;Landkreis Teltow-Fläming;52.216;13.4491
660;15806;Rehagen;Brandenburg;Landkreis Teltow-Fläming;52.1663;13.369
661;15806;Kallinchen;Brandenburg;Landkreis Teltow-Fläming;52.2118;13.5597
662;15806;Telz;Brandenburg;Landkreis Dahme-Spreewald;52.245;13.4944
663;15806;Schöneiche;Brandenburg;Landkreis Teltow-Fläming;52.2224;13.5141
664;15806;Saalow;Brandenburg;Landkreis Teltow-Fläming;52.1944;13.3758
665;15806;Nächst Neuendorf;Brandenburg;Landkreis Teltow-Fläming;52.2333;13.4167
666;15806;Groß Machnow;Brandenburg;Landkreis Teltow-Fläming;52.2667;13.4667
667;15806;Kummersdorf-Alexanderdorf;Brandenburg;Landkreis Teltow-Fläming;52.1667;13.4167
668;15827;Blankenfelde;Brandenburg;Landkreis Teltow-Fläming;52.3372;13.4121
669;15827;Dahlewitz;Brandenburg;Landkreis Teltow-Fläming;52.3209;13.4401
670;15831;Selchow;Brandenburg;Landkreis Dahme-Spreewald;52.3571;13.4722
671;15831;Groß Kienitz;Brandenburg;Landkreis Teltow-Fläming;52.3253;13.4634
672;15831;Mahlow;Brandenburg;Landkreis Teltow-Fläming;52.3602;13.4095
673;15831;Jühnsdorf;Brandenburg;Landkreis Teltow-Fläming;52.3008;13.3849
674;15831;Großziethen;Brandenburg;Landkreis Dahme-Spreewald;52.3964;13.4466
675;15831;Diepensee;Brandenburg;Landkreis Teltow-Fläming;52.3667;13.5167
676;15831;Waßmannsdorf;Brandenburg;Landkreis Teltow-Fläming;52.3667;13.4667
677;15834;Rangsdorf;Brandenburg;Landkreis Teltow-Fläming;52.2913;13.4195
678;15837;Baruth/Mark;Brandenburg;Landkreis Teltow-Fläming;52.05;13.5
679;15838;Kummersdorf-Gut;Brandenburg;Landkreis Teltow-Fläming;52.1029;13.3756
680;15838;Sperenberg;Brandenburg;Landkreis Teltow-Fläming;52.1411;13.365
681;15838;Wünsdorf;Brandenburg;Landkreis Teltow-Fläming;52.1643;13.4722
682;15838;Klausdorf;Brandenburg;Landkreis Teltow-Fläming;52.1546;13.4064
683;15848;Beeskow;Brandenburg;Landkreis Oder-Spree;52.1729;14.246
684;15848;Tauche;Brandenburg;Landkreis Oder-Spree;52.1292;14.1306
685;15848;Tauche Falkenberg;Brandenburg;Landkreis Oder-Spree;52.1667;14.1333
686;15848;Tauche Briescht;Brandenburg;Landkreis Oder-Spree;52.1167;14.1167
687;15848;Plattkow;Brandenburg;Landkreis Dahme-Spreewald;52.1063;14.018
688;15848;Tauche Kossenblatt;Brandenburg;Landkreis Oder-Spree;52.1167;14.0667
689;15848;Tauche Giesensdorf;Brandenburg;Landkreis Oder-Spree;52.1333;14.1333
690;15848;Tauche Tauche;Brandenburg;Landkreis Oder-Spree;52.15;14.1667
691;15848;Tauche Ranzig;Brandenburg;Landkreis Oder-Spree;52.1167;14.2
692;15848;Tauche Mittweide;Brandenburg;Landkreis Oder-Spree;52.0667;14.15
693;15848;Speichrow;Brandenburg;Landkreis Dahme-Spreewald;52.036;14.2208
694;15848;Friedland Leißnitz;Brandenburg;Landkreis Oder-Spree;52.1167;14.2167
695;15848;Tauche Stremmen;Brandenburg;Landkreis Oder-Spree;52.1333;14.1667
696;15848;Rietz-Neuendorf Behrensdorf;Brandenburg;Landkreis Oder-Spree;52.1833;14.05
697;15848;Tauche Trebatsch;Brandenburg;Landkreis Oder-Spree;52.0833;14.1667
698;15848;Friedland;Brandenburg;Landkreis Oder-Spree;52.0943;14.3104
699;15848;Ragow-Merz;Brandenburg;Landkreis Oder-Spree;52.2;14.325
700;15848;Tauche Görsdorf bei Beeskow;Brandenburg;Landkreis Oder-Spree;52.15;14.1
701;15848;Friedland Groß Briesen;Brandenburg;Landkreis Oder-Spree;52.1167;14.3833
702;15848;Rietz-Neuendorf Görzig;Brandenburg;Landkreis Oder-Spree;52.2333;14.2
703;15848;Rietz-Neuendorf Buckow;Brandenburg;Landkreis Oder-Spree;52.1833;14.1667
704;15848;Friedland Schadow;Brandenburg;Landkreis Oder-Spree;52.05;14.2667
705;15848;Friedland Pieskow;Brandenburg;Landkreis Oder-Spree;52.05;14.2333
706;15848;Beeskow Kohlsdorf;Brandenburg;Landkreis Oder-Spree;52.1667;14.2
707;15848;Beeskow Bornow;Brandenburg;Landkreis Oder-Spree;52.1667;14.2
708;15848;Tauche Lindenberg;Brandenburg;Landkreis Oder-Spree;52.2;14.1333
709;15848;Friedland Friedland;Brandenburg;Landkreis Oder-Spree;52.1;14.2667
710;15848;Beeskow Oegeln;Brandenburg;Landkreis Oder-Spree;52.1833;14.2833
711;15848;Friedland Weichensdorf;Brandenburg;Landkreis Oder-Spree;52.0833;14.35
712;15848;Friedland Niewisch;Brandenburg;Landkreis Oder-Spree;52.0833;14.2333
713;15848;Friedland Günthersdorf;Brandenburg;Landkreis Oder-Spree;52.0833;14.3
714;15848;Ragow-Merz Ragow;Brandenburg;Landkreis Oder-Spree;52.2;14.35
715;15848;Rietz-Neuendorf Birkholz;Brandenburg;Landkreis Oder-Spree;52.2;14.2
716;15848;Beeskow Schneeberg;Brandenburg;Landkreis Oder-Spree;52.1667;14.3333
717;15848;Friedland Reudnitz;Brandenburg;Landkreis Oder-Spree;52.1333;14.3333
718;15848;Tauche Werder;Brandenburg;Landkreis Oder-Spree;52.1167;14.0333
719;15848;Rietz-Neuendorf Drahendorf;Brandenburg;Landkreis Oder-Spree;52.2833;14.2333
720;15848;Rietz-Neuendorf Groß Rietz;Brandenburg;Landkreis Oder-Spree;52.2167;14.2167
721;15848;Friedland Kummerow;Brandenburg;Landkreis Oder-Spree;52.15;14.2333
722;15848;Beeskow Neuendorf;Brandenburg;Landkreis Oder-Spree;52.1833;14.2333
723;15848;Beeskow Radinkendorf;Brandenburg;Landkreis Oder-Spree;52.2167;14.2667
724;15848;Friedland Karras;Brandenburg;Landkreis Oder-Spree;52.0833;14.2833
725;15848;Rietz-Neuendorf Ahrensdorf;Brandenburg;Landkreis Oder-Spree;52.1667;14.0833
726;15848;Rietz-Neuendorf Sauen;Brandenburg;Landkreis Oder-Spree;52.2667;14.2167
727;15848;Beeskow Krügersdorf;Brandenburg;Landkreis Oder-Spree;52.15;14.3333
728;15848;Rietz-Neuendorf Wilmersdorf;Brandenburg;Landkreis Oder-Spree;52.2667;14.1333
729;15848;Friedland Zeust;Brandenburg;Landkreis Oder-Spree;52.1333;14.2667
730;15848;Rietz-Neuendorf Neubrück (Spree);Brandenburg;Landkreis Oder-Spree;52.2667;14.2833
731;15848;Friedland Lindow;Brandenburg;Landkreis Oder-Spree;52.1;14.3
732;15848;Ragow-Merz Merz;Brandenburg;Landkreis Oder-Spree;52.2;14.3
733;15848;Rietz-Neuendorf Pfaffendorf;Brandenburg;Landkreis Oder-Spree;52.2667;14.1667
734;15848;Friedland Klein Muckrow;Brandenburg;Landkreis Oder-Spree;52.05;14.4333
735;15848;Rietz-Neuendorf Herzberg;Brandenburg;Landkreis Oder-Spree;52.2167;14.1167
736;15848;Rietz-Neuendorf;Brandenburg;Landkreis Oder-Spree;52.2321;14.1619
737;15848;Friedland Chossewitz;Brandenburg;Landkreis Oder-Spree;52.1;14.4333
738;15859;Philadelphia;Brandenburg;Landkreis Oder-Spree;52.2513;13.8954
739;15859;Storkow (Mark) Bugk;Brandenburg;Landkreis Oder-Spree;52.2;13.9167
740;15859;Rieplos;Brandenburg;Landkreis Oder-Spree;52.2835;13.9066
741;15859;Storkow (Mark) Groß Schauen;Brandenburg;Landkreis Oder-Spree;52.2333;13.9167
742;15859;Kummersdorf;Brandenburg;Landkreis Oder-Spree;52.271;13.8659
743;15859;Storkow (Mark) Alt Stahnsdorf;Brandenburg;Landkreis Oder-Spree;52.2833;13.8833
744;15859;Storkow (Mark);Brandenburg;Landkreis Oder-Spree;52.2238;13.8964
745;15859;Kehrigk;Brandenburg;Landkreis Oder-Spree;52.1615;13.9192
746;15859;Storkow (Mark) Groß Eichholz;Brandenburg;Landkreis Oder-Spree;52.1667;13.8667
747;15859;Storkow (Mark) Görsdorf bei Storkow;Brandenburg;Landkreis Oder-Spree;52.2333;13.8333
748;15859;Storkow (Mark) Kummersdorf;Brandenburg;Landkreis Oder-Spree;52.2667;13.8667
749;15859;Storkow (Mark) Storkow;Brandenburg;Landkreis Oder-Spree;52.25;13.9333
750;15859;Storkow (Mark) Limsdorf;Brandenburg;Landkreis Oder-Spree;52.1667;14.0167
751;15859;Storkow (Mark) Wochowsee;Brandenburg;Landkreis Oder-Spree;52.2333;13.9
752;15859;Storkow (Mark) Schwerin;Brandenburg;Landkreis Oder-Spree;52.2;13.8333
753;15859;Storkow (Mark) Selchow;Brandenburg;Landkreis Oder-Spree;52.2167;13.8667
754;15864;Diensdorf-Radlow;Brandenburg;Landkreis Oder-Spree;52.2333;14.05
755;15864;Rietz-Neuendorf;Brandenburg;Landkreis Oder-Spree;52.2321;14.1619
756;15864;Wendisch Rietz;Brandenburg;Landkreis Oder-Spree;52.2161;14.0084
757;15864;Rietz-Neuendorf Glienicke;Brandenburg;Landkreis Oder-Spree;52.2;14.0833
758;15868;Doberburg;Brandenburg;Landkreis Dahme-Spreewald;52.005;14.2439
759;15868;Ullersdorf;Brandenburg;Landkreis Dahme-Spreewald;52.0385;14.368
760;15868;Friedland;Brandenburg;Landkreis Dahme-Spreewald;52.0943;14.3104
761;15868;Lieberose;Brandenburg;Landkreis Dahme-Spreewald;51.9849;14.2999
762;15868;Friedland Groß Muckrow;Brandenburg;Landkreis Dahme-Spreewald;52.075;14.4333
763;15868;Leeskow;Brandenburg;Landkreis Dahme-Spreewald;52.0179;14.4105
764;15868;Jamlitz;Brandenburg;Landkreis Dahme-Spreewald;51.9913;14.361
765;15890;Siehdichum Pohlitz;Brandenburg;Landkreis Oder-Spree;52.1833;14.5833
766;15890;Siehdichum;Brandenburg;Landkreis Oder-Spree;52.1944;14.5333
767;15890;Siehdichum Schernsdorf;Brandenburg;Landkreis Oder-Spree;52.2;14.4833
768;15890;Vogelsang;Brandenburg;Landkreis Oder-Spree;52.1824;14.6637
769;15890;Siehdichum Rießen;Brandenburg;Landkreis Oder-Spree;52.2;14.5333
770;15890;Schlaubetal Bremsdorf;Brandenburg;Landkreis Oder-Spree;52.15;14.5
771;15890;Schlaubetal Fünfeichen;Brandenburg;Landkreis Oder-Spree;52.15;14.5333
772;15890;Eisenhüttenstadt Schönfließ;Brandenburg;Landkreis Oder-Spree;52.15;14.6167
773;15890;Schlaubetal Kieselwitz;Brandenburg;Landkreis Oder-Spree;52.1167;14.5
774;15890;Eisenhüttenstadt;Brandenburg;Landkreis Oder-Spree;52.1601;14.555
775;15890;Schlaubetal;Brandenburg;Landkreis Oder-Spree;52.1289;14.5111
776;15890;Eisenhüttenstadt Fürstenberg;Brandenburg;Landkreis Oder-Spree;52.15;14.6667
777;15890;Eisenhüttenstadt Diehlo;Brandenburg;Landkreis Oder-Spree;52.1333;14.6
778;15898;Neuzelle Bahro;Brandenburg;Landkreis Oder-Spree;52.05;14.5667
779;15898;Lawitz;Brandenburg;Landkreis Oder-Spree;52.107;14.6415
780;15898;Neuzelle Neuzelle;Brandenburg;Landkreis Oder-Spree;52.0833;14.6333
781;15898;Neuzelle Treppeln;Brandenburg;Landkreis Oder-Spree;52.0667;14.5333
782;15898;Neuzelle Henzendorf;Brandenburg;Landkreis Oder-Spree;52.05;14.5167
783;15898;Neuzelle Göhlen;Brandenburg;Landkreis Oder-Spree;52.05;14.5833
784;15898;Neuzelle;Brandenburg;Landkreis Oder-Spree;52.0639;14.6028
785;15898;Neißemünde Coschen;Brandenburg;Landkreis Oder-Spree;52.0167;14.7333
786;15898;Neißemünde Breslack;Brandenburg;Landkreis Oder-Spree;52.05;14.7333
787;15898;Neuzelle Steinsdorf;Brandenburg;Landkreis Oder-Spree;52.0333;14.6667
788;15898;Neuzelle Streichwitz;Brandenburg;Landkreis Oder-Spree;52.0667;14.65
789;15898;Neißemünde;Brandenburg;Landkreis Oder-Spree;52.05;14.7333
790;15898;Neuzelle Möbiskruge;Brandenburg;Landkreis Oder-Spree;52.1;14.6
791;15898;Neuzelle Ossendorf;Brandenburg;Landkreis Oder-Spree;52.0667;14.5667
792;15898;Neuzelle Kobbeln;Brandenburg;Landkreis Oder-Spree;52.1;14.65
793;15898;Neuzelle Schwerzko;Brandenburg;Landkreis Oder-Spree;52.0667;14.6167
794;15898;Neißemünde Ratzdorf;Brandenburg;Landkreis Oder-Spree;52.0667;14.75
795;15898;Neuzelle Bomsdorf;Brandenburg;Landkreis Oder-Spree;52.0333;14.65
796;15898;Neißemünde Wellmitz;Brandenburg;Landkreis Oder-Spree;52.0667;14.7167
797;15907;Lübben (Spreewald);Brandenburg;Landkreis Dahme-Spreewald;51.9455;13.8852
798;15910;Schuhlen-Wiese;Brandenburg;Landkreis Dahme-Spreewald;52.0609;14.107
799;15910;Pretschen;Brandenburg;Landkreis Dahme-Spreewald;52.0899;13.9927
800;15910;Unterspreewald;Brandenburg;Landkreis Dahme-Spreewald;52.091;13.8902
801;15910;Schönwald;Brandenburg;Landkreis Dahme-Spreewald;51.9853;13.723
802;15910;Dürrenhofe;Brandenburg;Landkreis Dahme-Spreewald;52.0258;13.9488
803;15910;Rietzneuendorf-Staakow;Brandenburg;Landkreis Dahme-Spreewald;52.0191;13.6833
804;15910;Kuschkow;Brandenburg;Landkreis Dahme-Spreewald;52.0595;13.958
805;15910;Krausnick-Groß Wasserburg;Brandenburg;Landkreis Dahme-Spreewald;52.0462;13.8489
806;15910;Hohenbrück-Neu Schadow;Brandenburg;Landkreis Dahme-Spreewald;52.0932;13.916
807;15910;Alt-Schadow;Brandenburg;Landkreis Dahme-Spreewald;52.1333;13.95
808;15910;Schlepzig;Brandenburg;Landkreis Dahme-Spreewald;52.0333;13.9
809;15910;Wittmannsdorf-Bückchen;Brandenburg;Landkreis Dahme-Spreewald;52.0667;14.05
810;15910;Gröditsch;Brandenburg;Landkreis Dahme-Spreewald;52.0524;13.9996
811;15913;Byhlen;Brandenburg;Landkreis Dahme-Spreewald;51.9093;14.1862
812;15913;Briesensee;Brandenburg;Landkreis Dahme-Spreewald;51.956;14.0047
813;15913;Alt Zauche;Brandenburg;Landkreis Dahme-Spreewald;51.9168;14.0149
814;15913;Ressen-Zaue;Brandenburg;Landkreis Dahme-Spreewald;52.0359;14.162
815;15913;Neu Zauche;Brandenburg;Landkreis Dahme-Spreewald;51.9276;14.0881
816;15913;Groß Leuthen;Brandenburg;Landkreis Dahme-Spreewald;52.038;14.0374
817;15913;Klein Leine;Brandenburg;Landkreis Dahme-Spreewald;51.9738;14.0571
818;15913;Groß Leine;Brandenburg;Landkreis Dahme-Spreewald;51.997;14.0636
819;15913;Sacrow-Waldow;Brandenburg;Landkreis Dahme-Spreewald;51.9558;14.1285
820;15913;Leibchel;Brandenburg;Landkreis Dahme-Spreewald;52.029;14.0777
821;15913;Byhleguhre;Brandenburg;Landkreis Dahme-Spreewald;51.8793;14.1745
822;15913;Dollgen;Brandenburg;Landkreis Dahme-Spreewald;52.018;14.0385
823;15913;Butzen;Brandenburg;Landkreis Dahme-Spreewald;51.9343;14.168
824;15913;Lamsfeld-Groß Liebitz;Brandenburg;Landkreis Dahme-Spreewald;51.975;14.2327
825;15913;Krugau;Brandenburg;Landkreis Dahme-Spreewald;52.0272;13.9827
826;15913;Wußwerk;Brandenburg;Landkreis Dahme-Spreewald;51.927;14.0504
827;15913;Laasow;Brandenburg;Landkreis Dahme-Spreewald;51.9448;14.1304
828;15913;Glietz;Brandenburg;Landkreis Dahme-Spreewald;52.0089;14.0818
829;15913;Mochow;Brandenburg;Landkreis Dahme-Spreewald;51.978;14.1893
830;15913;Straupitz;Brandenburg;Landkreis Dahme-Spreewald;51.9136;14.1228
831;15913;Biebersdorf;Brandenburg;Landkreis Dahme-Spreewald;51.9847;13.9741
832;15913;Goyatz;Brandenburg;Landkreis Dahme-Spreewald;52.0187;14.1758
833;15913;Jessern;Brandenburg;Landkreis Dahme-Spreewald;52.0242;14.1944
834;15913;Caminchen;Brandenburg;Landkreis Dahme-Spreewald;51.9529;14.07
835;15926;Heideblick Bornsdorf;Brandenburg;Landkreis Dahme-Spreewald;51.7732;13.6939
836;15926;Duben;Brandenburg;Landkreis Dahme-Spreewald;51.8976;13.8074
837;15926;Heideblick Waltersdorf;Brandenburg;Landkreis Dahme-Spreewald;51.8215;13.6504
838;15926;Heideblick;Brandenburg;Landkreis Dahme-Spreewald;51.8127;13.6551
839;15926;Heideblick Gehren;Brandenburg;Landkreis Dahme-Spreewald;51.8033;13.6469
840;15926;Heideblick Beesdau;Brandenburg;Landkreis Dahme-Spreewald;51.7915;13.7399
841;15926;Heideblick Goßmar;Brandenburg;Landkreis Dahme-Spreewald;51.82;13.6996
842;15926;Heideblick Langengrassau;Brandenburg;Landkreis Dahme-Spreewald;51.8333;13.6424
843;15926;Schlabendorf;Brandenburg;Landkreis Dahme-Spreewald;51.8084;13.8206
844;15926;Heideblick Riedebeck;Brandenburg;Landkreis Dahme-Spreewald;51.8055;13.6799
845;15926;Cahnsdorf;Brandenburg;Landkreis Dahme-Spreewald;51.8504;13.747
846;15926;Heideblick Wüstermarke;Brandenburg;Landkreis Dahme-Spreewald;51.8182;13.6
847;15926;Görlsdorf;Brandenburg;Landkreis Dahme-Spreewald;51.8181;13.7554
848;15926;Heideblick Weißack;Brandenburg;Landkreis Dahme-Spreewald;51.7497;13.6937
849;15926;Walddrehna;Brandenburg;Landkreis Dahme-Spreewald;51.7778;13.6269
850;15926;Bersteland Reichwalde;Brandenburg;Landkreis Dahme-Spreewald;51.9273;13.7256
851;15926;Bersteland;Brandenburg;Landkreis Dahme-Spreewald;51.9425;13.776
852;15926;Heideblick Falkenberg;Brandenburg;Landkreis Dahme-Spreewald;51.852;13.5684
853;15926;Bersteland Freiwalde;Brandenburg;Landkreis Dahme-Spreewald;51.9575;13.7461
854;15926;Bersteland Niewitz;Brandenburg;Landkreis Dahme-Spreewald;51.937;13.7865
855;15926;Luckau;Brandenburg;Landkreis Dahme-Spreewald;51.8297;13.6741
856;15926;Heideblick Pitschen-Pickel;Brandenburg;Landkreis Dahme-Spreewald;51.8715;13.5905
857;15936;Dahmetal;Brandenburg;Landkreis Teltow-Fläming;51.9067;13.5
858;15936;Steinreich;Brandenburg;Landkreis Teltow-Fläming;51.9495;13.4934
859;15936;Steinreich Glienig;Brandenburg;Landkreis Teltow-Fläming;51.9411;13.4448
860;15936;Dahme/Mark;Brandenburg;Landkreis Teltow-Fläming;51.8941;13.4342
861;15938;Steinreich Sellendorf;Brandenburg;Landkreis Dahme-Spreewald;51.9588;13.5419
862;15938;Steinreich;Brandenburg;Landkreis Dahme-Spreewald;51.9495;13.4934
863;15938;Golßen;Brandenburg;Landkreis Dahme-Spreewald;51.972;13.6011
864;15938;Drahnsdorf;Brandenburg;Landkreis Dahme-Spreewald;51.9167;13.5833
865;15938;Kasel-Golzig;Brandenburg;Landkreis Dahme-Spreewald;51.9333;13.7
866;16225;Eberswalde;Brandenburg;Landkreis Barnim;52.8342;13.8218
867;16227;Eberswalde;Brandenburg;Landkreis Barnim;52.8333;13.8333
868;16230;Breydin;Brandenburg;Landkreis Barnim;52.7694;13.8153
869;16230;Britz;Brandenburg;Landkreis Barnim;52.8873;13.8112
870;16230;Chorin;Brandenburg;Landkreis Barnim;52.902;13.8715
871;16230;Melchow;Brandenburg;Landkreis Barnim;52.7761;13.7065
872;16230;Sydower Fließ;Brandenburg;Landkreis Barnim;52.7274;13.723
873;16244;Altenhof;Brandenburg;Landkreis Barnim;52.9148;13.7132
874;16244;Finowfurt;Brandenburg;Landkreis Barnim;52.8583;13.7578
875;16247;Ziethen;Brandenburg;Landkreis Barnim;52.9667;13.9167
876;16247;Friedrichswalde;Brandenburg;Landkreis Barnim;53.0292;13.7068
877;16247;Neugrimnitz;Brandenburg;Landkreis Barnim;52.9752;13.8297
878;16247;Althüttendorf;Brandenburg;Landkreis Barnim;52.9623;13.8072
879;16247;Joachimsthal;Brandenburg;Landkreis Barnim;52.9794;13.7449
880;16248;Bölkendorf;Brandenburg;Landkreis Uckermark;52.9506;14.0009
881;16248;Hohenfinow;Brandenburg;Landkreis Barnim;52.8134;13.9249
882;16248;Oderberg;Brandenburg;Landkreis Barnim;52.8657;14.0451
883;16248;Lunow-Stolzenhagen;Brandenburg;Landkreis Barnim;52.9333;14.1083
884;16248;Niederfinow;Brandenburg;Landkreis Barnim;52.8337;13.9284
885;16248;Liepe;Brandenburg;Landkreis Barnim;52.8621;13.9695
886;16248;Hohensaaten;Brandenburg;Landkreis Märkisch-Oderland;52.8743;14.142
887;16248;Parsteinsee;Brandenburg;Landkreis Barnim;52.9333;14.05
888;16259;Neuenhagen;Brandenburg;Landkreis Märkisch-Oderland;52.8366;14.053
889;16259;Bad Freienwalde;Brandenburg;Landkreis Märkisch-Oderland;52.7873;14.0304
890;16259;Altglietzen;Brandenburg;Landkreis Märkisch-Oderland;52.8342;14.0896
891;16259;Höhenland Wölsickendorf-Wollenberg, Wollenberg;Brandenburg;Landkreis Märkisch-Oderland;52.7941;13.8977
892;16259;Bralitz;Brandenburg;Landkreis Märkisch-Oderland;52.8351;14.0059
893;16259;Schiffmühle;Brandenburg;Landkreis Märkisch-Oderland;52.8068;14.0446
894;16259;Neulewin;Brandenburg;Landkreis Märkisch-Oderland;52.7243;14.2792
895;16259;Oderaue Mädewitz, Neumädewitz;Brandenburg;Landkreis Märkisch-Oderland;52.74;14.3396
896;16259;Falkenberg;Brandenburg;Landkreis Märkisch-Oderland;52.8051;13.958
897;16259;Höhenland Steinbeck;Brandenburg;Landkreis Märkisch-Oderland;52.7586;13.8753
898;16259;Heckelberg-Brunow Heckelberg;Brandenburg;Landkreis Märkisch-Oderland;52.7403;13.8414
899;16259;Heckelberg-Brunow Brunow;Brandenburg;Landkreis Märkisch-Oderland;52.7297;13.874
900;16259;Neulewin Neulietzegöricke;Brandenburg;Landkreis Märkisch-Oderland;52.7667;14.25
901;16259;Hohenwutzen;Brandenburg;Landkreis Märkisch-Oderland;52.8441;14.1184
902;16259;Falkenberg Kruge/Gersdorf, Gersdorf;Brandenburg;Landkreis Märkisch-Oderland;52.7707;13.8918
903;16259;Tiefensee;Brandenburg;Landkreis Barnim;52.68;13.8356
904;16259;Beiersdorf-Freudenberg Beiersdorf;Brandenburg;Landkreis Märkisch-Oderland;52.6926;13.783
905;16259;Beiersdorf-Freudenberg;Brandenburg;Landkreis Märkisch-Oderland;52.6967;13.8014
906;16259;Beiersdorf-Freudenberg Freudenberg;Brandenburg;Landkreis Märkisch-Oderland;52.7007;13.8199
907;16259;Heckelberg-Brunow;Brandenburg;Landkreis Märkisch-Oderland;52.735;13.8577
908;16259;Oderaue Neurüdnitz;Brandenburg;Landkreis Märkisch-Oderland;52.8;14.1833
909;16259;Falkenberg Kruge/Gersdorf;Brandenburg;Landkreis Märkisch-Oderland;52.7684;13.8913
910;16259;Oderaue Zäckericker Loose;Brandenburg;Landkreis Märkisch-Oderland;52.7833;14.2167
911;16259;Falkenberg Kruge/Gersdorf, Neugersdorf;Brandenburg;Landkreis Märkisch-Oderland;52.7793;13.9039
912;16259;Oderaue Mädewitz, Altmädewitz;Brandenburg;Landkreis Märkisch-Oderland;52.7509;14.3313
913;16259;Oderaue Wustrow;Brandenburg;Landkreis Märkisch-Oderland;52.7621;14.2107
914;16259;Falkenberg Falkenberg/Mark;Brandenburg;Landkreis Märkisch-Oderland;52.8058;13.957
915;16259;Oderaue Altreetz;Brandenburg;Landkreis Märkisch-Oderland;52.7667;14.1667
916;16259;Höhenland;Brandenburg;Landkreis Märkisch-Oderland;52.7534;13.8823
917;16259;Höhenland Wölsickendorf-Wollenberg, Wölsickendorf;Brandenburg;Landkreis Märkisch-Oderland;52.7638;13.9049
918;16259;Falkenberg Kruge/Gersdorf, Kruge;Brandenburg;Landkreis Märkisch-Oderland;52.7553;13.8783
919;16259;Höhenland Wölsickendorf-Wollenberg;Brandenburg;Landkreis Märkisch-Oderland;52.7789;13.9013
920;16259;Oderaue Neureetz;Brandenburg;Landkreis Märkisch-Oderland;52.7833;14.15
921;16259;Oderaue Wustrow, Neu-Wustrow;Brandenburg;Landkreis Märkisch-Oderland;52.7638;14.2026
922;16259;Oderaue;Brandenburg;Landkreis Märkisch-Oderland;52.7773;14.2042
923;16259;Falkenberg Dannenberg/Mark;Brandenburg;Landkreis Märkisch-Oderland;52.7736;13.957
924;16259;Oderaue Neuküstrinchen;Brandenburg;Landkreis Märkisch-Oderland;52.8;14.1667
925;16259;Oderaue Mädewitz;Brandenburg;Landkreis Märkisch-Oderland;52.7455;14.3355
926;16259;Höhenland Leuenberg;Brandenburg;Landkreis Märkisch-Oderland;52.7227;13.8701
927;16259;Neulewin Güstebieser Loose;Brandenburg;Landkreis Märkisch-Oderland;52.75;14.3
928;16259;Oderaue Wustrow, Wustrow;Brandenburg;Landkreis Märkisch-Oderland;52.7603;14.2188
929;16259;Neulewin Neulewin;Brandenburg;Landkreis Märkisch-Oderland;52.7167;14.2833
930;16269;Bliesdorf Metzdorf;Brandenburg;Landkreis Märkisch-Oderland;52.6586;14.1761
931;16269;Wriezener Höhe;Brandenburg;Landkreis Märkisch-Oderland;52.7;14.0583
932;16269;Bliesdorf Bliesdorf;Brandenburg;Landkreis Märkisch-Oderland;52.7;14.15
933;16269;Bliesdorf Kunersdorf;Brandenburg;Landkreis Märkisch-Oderland;52.6747;14.1584
934;16269;Bliesdorf;Brandenburg;Landkreis Märkisch-Oderland;52.693;14.1595
935;16269;Wriezen;Brandenburg;Landkreis Märkisch-Oderland;52.7209;14.1343
936;16278;Kerkow;Brandenburg;Landkreis Uckermark;53.0373;13.9883
937;16278;Wolletz;Brandenburg;Landkreis Uckermark;53.0249;13.9014
938;16278;Günterberg;Brandenburg;Landkreis Uckermark;53.0971;13.964
939;16278;Steinhöfel;Brandenburg;Landkreis Uckermark;53.0946;13.8787
940;16278;Mürow;Brandenburg;Landkreis Uckermark;53.0532;14.0333
941;16278;Neukünkendorf;Brandenburg;Landkreis Uckermark;52.973;14.0394
942;16278;Welsow;Brandenburg;Landkreis Uckermark;53.0692;14.0022
943;16278;Schöneberg;Brandenburg;Landkreis Uckermark;53.0085;14.1426
944;16278;Crussow;Brandenburg;Landkreis Uckermark;52.9998;14.0801
945;16278;Frauenhagen;Brandenburg;Landkreis Uckermark;53.0771;14.0422
946;16278;Schmargendorf;Brandenburg;Landkreis Uckermark;52.9815;13.9585
947;16278;Schmiedeberg;Brandenburg;Landkreis Uckermark;53.143;13.9521
948;16278;Wilmersdorf;Brandenburg;Landkreis Uckermark;53.1109;13.9061
949;16278;Görlsdorf;Brandenburg;Landkreis Uckermark;53.0532;13.9423
950;16278;Herzsprung;Brandenburg;Landkreis Uckermark;52.9755;13.9876
951;16278;Gellmersdorf;Brandenburg;Landkreis Uckermark;52.9684;14.0707
952;16278;Bruchhagen;Brandenburg;Landkreis Uckermark;53.0813;13.9747
953;16278;Biesenbrow;Brandenburg;Landkreis Uckermark;53.1198;14.0129
954;16278;Angermünde;Brandenburg;Landkreis Uckermark;53.015;13.9992
955;16278;Pinnow;Brandenburg;Landkreis Uckermark;53.062;14.0856
956;16278;Stolpe/Oder;Brandenburg;Landkreis Uckermark;52.9833;14.1167
957;16278;Greiffenberg;Brandenburg;Landkreis Uckermark;53.0873;13.9552
958;16278;Mark Landin;Brandenburg;Landkreis Uckermark;53.1111;14.0917
959;16303;Schwedt/Oder;Brandenburg;Landkreis Uckermark;53.066;14.2711
960;16306;Blumberg;Brandenburg;Landkreis Uckermark;53.2061;14.1525
961;16306;Biesendahlshof;Brandenburg;Landkreis Uckermark;53.1964;14.2092
962;16306;Stendell;Brandenburg;Landkreis Uckermark;53.1435;14.1661
963;16306;Woltersdorf;Brandenburg;Landkreis Uckermark;53.1795;14.2167
964;16306;Casekow;Brandenburg;Landkreis Uckermark;53.2112;14.2082
965;16306;Friedrichsthal;Brandenburg;Landkreis Uckermark;53.1581;14.3464
966;16306;Luckow-Petershagen;Brandenburg;Landkreis Uckermark;53.2435;14.2573
967;16306;Hohenselchow;Brandenburg;Landkreis Uckermark;53.205;14.2807
968;16306;Berkholz-Meyenburg;Brandenburg;Landkreis Uckermark;53.05;14.2167
969;16306;Schönow;Brandenburg;Landkreis Uckermark;53.1789;14.153
970;16306;Vierraden;Brandenburg;Landkreis Uckermark;53.0967;14.2934
971;16306;Zichow;Brandenburg;Landkreis Uckermark;53.1893;14.0385
972;16306;Wartin;Brandenburg;Landkreis Uckermark;53.2508;14.157
973;16306;Groß Pinnow;Brandenburg;Landkreis Uckermark;53.1842;14.2762
974;16306;Passow;Brandenburg;Landkreis Uckermark;53.1429;14.1142
975;16307;Radekow;Brandenburg;Landkreis Uckermark;53.3002;14.3531
976;16307;Hohenreinkendorf;Brandenburg;Landkreis Uckermark;53.2304;14.3303
977;16307;Tantow;Brandenburg;Landkreis Uckermark;53.2716;14.351
978;16307;Mescherin;Brandenburg;Landkreis Uckermark;53.2472;14.43
979;16307;Gartz (Oder);Brandenburg;Landkreis Uckermark;53.2;14.3833
980;16307;Neurochlitz;Brandenburg;Landkreis Uckermark;53.2803;14.4067
981;16307;Geesow;Brandenburg;Landkreis Uckermark;53.2537;14.3791
982;16307;Rosow;Brandenburg;Landkreis Uckermark;53.3057;14.3863
983;16307;Schönfeld;Brandenburg;Landkreis Uckermark;53.2726;14.2916
984;16321;Lindenberg;Brandenburg;Landkreis Barnim;52.6026;13.5244
985;16321;Lobetal;Brandenburg;Landkreis Barnim;52.7279;13.5921
986;16321;Börnicke;Brandenburg;Landkreis Barnim;52.663;13.638
987;16321;Rüdnitz;Brandenburg;Landkreis Barnim;52.7214;13.625
988;16321;Danewitz;Brandenburg;Landkreis Barnim;52.7347;13.6658
989;16321;Bernau;Brandenburg;Landkreis Barnim;52.6821;13.5965
990;16321;Schönow;Brandenburg;Landkreis Barnim;52.6771;13.5364
991;16341;Zepernick;Brandenburg;Landkreis Barnim;52.6509;13.5409
992;16341;Schwanebeck;Brandenburg;Landkreis Barnim;52.6251;13.5441
993;16348;Groß Schönebeck (Schorfheide);Brandenburg;Landkreis Barnim;52.9;13.5167
994;16348;Zerpenschleuse;Brandenburg;Landkreis Barnim;52.8521;13.5279
995;16348;Stolzenhagen;Brandenburg;Landkreis Barnim;52.7781;13.4384
996;16348;Prenden;Brandenburg;Landkreis Barnim;52.7921;13.549
997;16348;Ruhlsdorf;Brandenburg;Landkreis Barnim;52.8235;13.5568
998;16348;Marienwerder;Brandenburg;Landkreis Barnim;52.8421;13.5993
999;16348;Klosterfelde;Brandenburg;Landkreis Barnim;52.7971;13.4789
1000;16348;Wandlitz;Brandenburg;Landkreis Barnim;52.742;13.458
1001;16352;Schönerlinde;Brandenburg;Landkreis Barnim;52.6539;13.445
1002;16352;Basdorf;Brandenburg;Landkreis Barnim;52.7126;13.4387
1003;16352;Schönwalde;Brandenburg;Landkreis Barnim;52.6779;13.44
1004;16356;Seefeld;Brandenburg;Landkreis Barnim;52.6224;13.6801
1005;16356;Ahrensfelde;Brandenburg;Landkreis Barnim;52.5766;13.5797
1006;16356;Krummensee;Brandenburg;Landkreis Barnim;52.5962;13.6926
1007;16356;Eiche;Brandenburg;Landkreis Barnim;52.5635;13.5891
1008;16356;Werneuchen;Brandenburg;Landkreis Barnim;52.6328;13.7344
1009;16356;Hirschfelde;Brandenburg;Landkreis Barnim;52.6367;13.7993
1010;16356;Schönfeld;Brandenburg;Landkreis Barnim;52.8333;13.5667
1011;16356;Blumberg;Brandenburg;Landkreis Barnim;52.6356;13.6849
1012;16356;Mehrow;Brandenburg;Landkreis Barnim;52.5709;13.6155
1013;16356;Wilmersdorf;Brandenburg;Landkreis Barnim;52.6639;13.6873
1014;16359;Lanke;Brandenburg;Landkreis Barnim;52.7609;13.5653
1015;16359;Biesenthal;Brandenburg;Landkreis Barnim;52.7662;13.6442
1016;16515;Schmachtenhagen;Brandenburg;Landkreis Oberhavel;52.7682;13.3259
1017;16515;Malz;Brandenburg;Landkreis Oberhavel;52.803;13.2922
1018;16515;Zehlendorf;Brandenburg;Landkreis Oberhavel;52.7838;13.3878
1019;16515;Friedrichsthal;Brandenburg;Landkreis Oberhavel;52.7947;13.2799
1020;16515;Nassenheide;Brandenburg;Landkreis Oberhavel;52.8148;13.2146
1021;16515;Wensickendorf;Brandenburg;Landkreis Oberhavel;52.7553;13.3766
1022;16515;Zühlsdorf;Brandenburg;Landkreis Oberhavel;52.73;13.3876
1023;16515;Neuholland;Brandenburg;Landkreis Oberhavel;52.8596;13.3257
1024;16515;Freienhagen;Brandenburg;Landkreis Oberhavel;52.8261;13.2746
1025;16515;Oranienburg;Brandenburg;Landkreis Oberhavel;52.7558;13.242
1026;16540;Stolpe;Brandenburg;Landkreis Oberhavel;52.661;13.2593
1027;16540;Hohen Neuendorf;Brandenburg;Landkreis Oberhavel;52.6763;13.2778
1028;16547;Birkenwerder;Brandenburg;Landkreis Oberhavel;52.6833;13.2833
1029;16548;Glienicke/Nordbahn;Brandenburg;Landkreis Oberhavel;52.6351;13.3075
1030;16552;Schildow;Brandenburg;Landkreis Oberhavel;52.6363;13.376
1031;16556;Borgsdorf;Brandenburg;Landkreis Oberhavel;52.7129;13.2767
1032;16559;Liebenwalde;Brandenburg;Landkreis Oberhavel;52.8713;13.3947
1033;16559;Liebenthal;Brandenburg;Landkreis Oberhavel;52.9128;13.4612
1034;16559;Kreuzbruch;Brandenburg;Landkreis Oberhavel;52.8404;13.4225
1035;16559;Hammer;Brandenburg;Landkreis Oberhavel;52.8797;13.4395
1036;16562;Bergfelde;Brandenburg;Landkreis Oberhavel;52.6729;13.3186
1037;16565;Lehnitz;Brandenburg;Landkreis Oberhavel;52.7405;13.2627
1038;16567;Schönfließ;Brandenburg;Landkreis Oberhavel;52.6555;13.3382
1039;16567;Mühlenbeck;Brandenburg;Landkreis Oberhavel;52.6647;13.3769
1040;16727;Velten;Brandenburg;Landkreis Oberhavel;52.6915;13.1753
1041;16727;Oberkrämer;Brandenburg;Landkreis Oberhavel;52.5833;13.3167
1042;16761;Hennigsdorf;Brandenburg;Landkreis Oberhavel;52.636;13.2042
1043;16766;Oberkrämer;Brandenburg;Landkreis Oberhavel;52.5833;13.3167
1044;16766;Kremmen;Brandenburg;Landkreis Oberhavel;52.7622;13.0252
1045;16767;Leegebruch;Brandenburg;Landkreis Oberhavel;52.7234;13.193
1046;16767;Germendorf;Brandenburg;Landkreis Oberhavel;52.7499;13.1701
1047;16775;Stechlin;Brandenburg;Landkreis Oberhavel;53.1056;13.0417
1048;16775;Zabelsdorf;Brandenburg;Landkreis Oberhavel;53.0476;13.2533
1049;16775;Löwenberger Land;Brandenburg;Landkreis Oberhavel;52.8958;13.1729
1050;16775;Krewelin;Brandenburg;Landkreis Oberhavel;52.9443;13.386
1051;16775;Burgwall;Brandenburg;Landkreis Oberhavel;53.049;13.3016
1052;16775;Großwoltersdorf;Brandenburg;Landkreis Oberhavel;53.0667;13.1
1053;16775;Klein-Mutz;Brandenburg;Landkreis Oberhavel;52.9667;13.2833
1054;16775;Sonnenberg;Brandenburg;Landkreis Oberhavel;53.0192;13.0884
1055;16775;Bredereiche;Brandenburg;Landkreis Oberhavel;53.1366;13.2426
1056;16775;Schönermark;Brandenburg;Landkreis Oberhavel;53.007;13.1202
1057;16775;Schulzendorf;Brandenburg;Landkreis Oberhavel;53.0358;13.049
1058;16775;Barsdorf;Brandenburg;Landkreis Oberhavel;53.1021;13.2882
1059;16775;Mildenberg;Brandenburg;Landkreis Oberhavel;53.0109;13.2879
1060;16775;Blumenow;Brandenburg;Landkreis Oberhavel;53.0998;13.2508
1061;16775;Badingen;Brandenburg;Landkreis Oberhavel;52.9987;13.2523
1062;16775;Kappe;Brandenburg;Landkreis Oberhavel;52.9665;13.4391
1063;16775;Gransee;Brandenburg;Landkreis Oberhavel;53.007;13.1575
1064;16775;Marienthal;Brandenburg;Landkreis Oberhavel;53.0547;13.2785
1065;16775;Rönnebeck;Brandenburg;Landkreis Oberhavel;53.0042;13.0407
1066;16775;Tornow;Brandenburg;Landkreis Oberhavel;53.0632;13.2875
1067;16792;Zehdenick;Brandenburg;Landkreis Oberhavel;52.9785;13.3317
1068;16792;Wesendorf;Brandenburg;Landkreis Oberhavel;52.983;13.38
1069;16792;Kurtschlag;Brandenburg;Landkreis Oberhavel;52.9988;13.478
1070;16798;Himmelpfort;Brandenburg;Landkreis Oberhavel;53.1775;13.2278
1071;16798;Zootzen;Brandenburg;Landkreis Oberhavel;53.1529;13.2114
1072;16798;Altthymen;Brandenburg;Landkreis Oberhavel;53.2397;13.1627
1073;16798;Fürstenberg/Havel;Brandenburg;Landkreis Oberhavel;53.1864;13.1708
1074;16798;Steinförde;Brandenburg;Landkreis Oberhavel;53.1873;13.0896
1075;16816;Neuruppin;Brandenburg;Landkreis Ostprignitz-Ruppin;52.9282;12.8031
1076;16818;Temnitzquell;Brandenburg;Landkreis Ostprignitz-Ruppin;53.0056;12.6444
1077;16818;Dabergotz;Brandenburg;Landkreis Ostprignitz-Ruppin;52.9031;12.7247
1078;16818;Basdorf;Brandenburg;Landkreis Ostprignitz-Ruppin;53.0909;12.7313
1079;16818;Fehrbellin Deutschhof;Brandenburg;Landkreis Ostprignitz-Ruppin;52.7;12.8167
1080;16818;Walsleben;Brandenburg;Landkreis Ostprignitz-Ruppin;52.9383;12.6645
1081;16818;Fehrbellin Wustrau-Altfriesack;Brandenburg;Landkreis Ostprignitz-Ruppin;52.85;12.8733
1082;16818;Märkisch Linden;Brandenburg;Landkreis Ostprignitz-Ruppin;52.9292;12.7083
1083;16818;Fehrbellin Wall;Brandenburg;Landkreis Ostprignitz-Ruppin;52.8167;12.9667
1084;16818;Rheinsberg Braunsberg;Brandenburg;Landkreis Ostprignitz-Ruppin;53.05;12.8333
1085;16818;Storbeck-Frankendorf;Brandenburg;Landkreis Ostprignitz-Ruppin;53.0067;12.7333
1086;16818;Fehrbellin Langen;Brandenburg;Landkreis Ostprignitz-Ruppin;52.85;12.8
1087;16827;Alt Ruppin;Brandenburg;Landkreis Ostprignitz-Ruppin;52.9483;12.848
1088;16831;Rheinsberg;Brandenburg;Landkreis Ostprignitz-Ruppin;53.0997;12.8989
1089;16831;Rheinsberg Kleinzerlang;Brandenburg;Landkreis Ostprignitz-Ruppin;53.1833;12.9167
1090;16831;Rheinsberg Zühlen;Brandenburg;Landkreis Ostprignitz-Ruppin;53.0833;12.8167
1091;16831;Rheinsberg Zechow;Brandenburg;Landkreis Ostprignitz-Ruppin;53.05;12.9167
1092;16831;Rheinsberg Heinrichsdorf;Brandenburg;Landkreis Ostprignitz-Ruppin;53.05;12.95
1093;16831;Rheinsberg Zechlinerhütte;Brandenburg;Landkreis Ostprignitz-Ruppin;53.15;12.8833
1094;16831;Rheinsberg Großzerlang;Brandenburg;Landkreis Ostprignitz-Ruppin;53.1833;12.95
1095;16831;Rheinsberg Schwanow;Brandenburg;Landkreis Ostprignitz-Ruppin;53.05;12.8667
1096;16831;Rheinsberg Linow;Brandenburg;Landkreis Ostprignitz-Ruppin;53.1;12.8333
1097;16833;Fehrbellin Linum;Brandenburg;Landkreis Ostprignitz-Ruppin;52.7815;12.7813
1098;16833;Fehrbellin Walchow;Brandenburg;Landkreis Ostprignitz-Ruppin;52.85;12.7667
1099;16833;Fehrbellin Dechtow;Brandenburg;Landkreis Ostprignitz-Ruppin;52.75;12.8167
1100;16833;Fehrbellin Königshorst;Brandenburg;Landkreis Ostprignitz-Ruppin;52.7167;12.8
1101;16833;Fehrbellin Hakenberg;Brandenburg;Landkreis Ostprignitz-Ruppin;52.7833;12.8333
1102;16833;Fehrbellin Karwesee;Brandenburg;Landkreis Ostprignitz-Ruppin;52.75;12.7833
1103;16833;Fehrbellin Betzin;Brandenburg;Landkreis Ostprignitz-Ruppin;52.7667;12.7667
1104;16833;Fehrbellin;Brandenburg;Landkreis Ostprignitz-Ruppin;52.8135;12.7644
1105;16833;Fehrbellin Tarmow;Brandenburg;Landkreis Ostprignitz-Ruppin;52.8;12.8
1106;16833;Fehrbellin Lentzke;Brandenburg;Landkreis Ostprignitz-Ruppin;52.8;12.7
1107;16833;Fehrbellin Brunne;Brandenburg;Landkreis Ostprignitz-Ruppin;52.7667;12.7333
1108;16833;Fehrbellin Protzen;Brandenburg;Landkreis Ostprignitz-Ruppin;52.85;12.7333
1109;16835;Rüthnick;Brandenburg;Landkreis Ostprignitz-Ruppin;52.8812;12.9965
1110;16835;Vielitz;Brandenburg;Landkreis Ostprignitz-Ruppin;52.9338;13.0161
1111;16835;Rheinsberg Dierberg;Brandenburg;Landkreis Ostprignitz-Ruppin;53.0333;12.9667
1112;16835;Seebeck-Strubensee;Brandenburg;Landkreis Ostprignitz-Ruppin;52.9395;13.0207
1113;16835;Herzberg;Brandenburg;Landkreis Ostprignitz-Ruppin;52.9027;12.9698
1114;16835;Lindow (Mark) Hindenberg;Brandenburg;Landkreis Ostprignitz-Ruppin;53.0333;13.0
1115;16835;Lindow (Mark) Schönberg (Mark);Brandenburg;Landkreis Ostprignitz-Ruppin;52.9333;12.9667
1116;16835;Lindow (Mark);Brandenburg;Landkreis Ostprignitz-Ruppin;52.9748;12.9869
1117;16837;Rheinsberg Luhme;Brandenburg;Landkreis Ostprignitz-Ruppin;53.1833;12.8333
1118;16837;Wittstock/Dosse Zempow;Brandenburg;Landkreis Ostprignitz-Ruppin;53.2167;12.7333
1119;16837;Rheinsberg Flecken Zechlin;Brandenburg;Landkreis Ostprignitz-Ruppin;53.15;12.7667
1120;16837;Rheinsberg Kagar;Brandenburg;Landkreis Ostprignitz-Ruppin;53.1333;12.8167
1121;16837;Rheinsberg Dorf Zechlin;Brandenburg;Landkreis Ostprignitz-Ruppin;53.1333;12.7667
1122;16837;Rheinsberg Wallitz;Brandenburg;Landkreis Ostprignitz-Ruppin;53.1167;12.7667
1123;16845;Temnitztal;Brandenburg;Landkreis Ostprignitz-Ruppin;52.8567;12.6367
1124;16845;Sieversdorf-Hohenofen;Brandenburg;Landkreis Ostprignitz-Ruppin;52.825;12.4083
1125;16845;Breddin;Brandenburg;Landkreis Ostprignitz-Ruppin;52.8856;12.2237
1126;16845;Großderschau;Brandenburg;Landkreis Havelland;52.7906;12.3682
1127;16845;Neustadt (Dosse);Brandenburg;Landkreis Ostprignitz-Ruppin;52.8528;12.4492
1128;16845;Temnitztal Garz;Brandenburg;Landkreis Ostprignitz-Ruppin;52.85;12.6333
1129;16845;Stüdenitz-Schönermark;Brandenburg;Landkreis Ostprignitz-Ruppin;52.8917;12.3
1130;16845;Dreetz;Brandenburg;Landkreis Ostprignitz-Ruppin;52.803;12.4596
1131;16845;Kyritz Holzhausen;Brandenburg;Landkreis Ostprignitz-Ruppin;52.9167;12.35
1132;16845;Temnitztal Wildberg;Brandenburg;Landkreis Ostprignitz-Ruppin;52.8775;12.6278
1133;16845;Zernitz-Lohm;Brandenburg;Landkreis Ostprignitz-Ruppin;52.875;12.3417
1134;16845;Märkisch Linden;Brandenburg;Landkreis Ostprignitz-Ruppin;52.9292;12.7083
1135;16845;Fehrbellin Manker;Brandenburg;Landkreis Ostprignitz-Ruppin;52.85;12.6667
1136;16866;Schönhagen;Brandenburg;Landkreis Prignitz;52.9623;12.1825
1137;16866;Kolrep;Brandenburg;Landkreis Prignitz;53.0309;12.2863
1138;16866;Döllen;Brandenburg;Landkreis Prignitz;52.9906;12.1854
1139;16866;Kyritz Drewen;Brandenburg;Landkreis Ostprignitz-Ruppin;52.9833;12.4
1140;16866;Vehlow;Brandenburg;Landkreis Prignitz;53.0123;12.3192
1141;16866;Rehfeld-Berlitt;Brandenburg;Landkreis Ostprignitz-Ruppin;52.95;12.2917
1142;16866;Demerthin;Brandenburg;Landkreis Prignitz;52.9743;12.2932
1143;16866;Bork-Lellichow;Brandenburg;Landkreis Ostprignitz-Ruppin;53.0333;12.45
1144;16866;Schrepkow;Brandenburg;Landkreis Prignitz;52.9778;12.1107
1145;16866;Kyritz Kötzlin;Brandenburg;Landkreis Ostprignitz-Ruppin;52.9;12.2333
1146;16866;Vehlin;Brandenburg;Landkreis Prignitz;52.9569;12.139
1147;16866;Teetz-Ganz;Brandenburg;Landkreis Ostprignitz-Ruppin;53.025;12.5083
1148;16866;Görike;Brandenburg;Landkreis Prignitz;52.9436;12.2013
1149;16866;Kunow;Brandenburg;Landkreis Prignitz;52.995;12.133
1150;16866;Groß Welle;Brandenburg;Landkreis Prignitz;53.012;12.0841
1151;16866;Kyritz;Brandenburg;Landkreis Ostprignitz-Ruppin;52.9808;12.3274
1152;16866;Dannenwalde;Brandenburg;Landkreis Prignitz;53.0266;12.2404
1153;16866;Gumtow;Brandenburg;Landkreis Prignitz;52.9833;12.25
1154;16866;Granzow;Brandenburg;Landkreis Prignitz;52.9587;12.2504
1155;16866;Wutike;Brandenburg;Landkreis Prignitz;53.0185;12.3748
1156;16866;Barenthin;Brandenburg;Landkreis Prignitz;52.9236;12.234
1157;16868;Wusterhausen (Dosse);Brandenburg;Landkreis Ostprignitz-Ruppin;52.8833;12.4667
1158;16909;Wittstock/Dosse Groß Haßlow;Brandenburg;Landkreis Ostprignitz-Ruppin;53.1833;12.55
1159;16909;Heiligengrabe Jabel;Brandenburg;Landkreis Ostprignitz-Ruppin;53.1667;12.4333
1160;16909;Heiligengrabe Blandikow;Brandenburg;Landkreis Ostprignitz-Ruppin;53.1167;12.3833
1161;16909;Heiligengrabe Wernikow;Brandenburg;Landkreis Ostprignitz-Ruppin;53.2167;12.4333
1162;16909;Heiligengrabe Liebenthal;Brandenburg;Landkreis Ostprignitz-Ruppin;53.15;12.4
1163;16909;Heiligengrabe Blesendorf;Brandenburg;Landkreis Ostprignitz-Ruppin;53.2;12.3333
1164;16909;Wittstock/Dosse Berlinchen;Brandenburg;Landkreis Ostprignitz-Ruppin;53.2167;12.5833
1165;16909;Heiligengrabe;Brandenburg;Landkreis Ostprignitz-Ruppin;53.1446;12.3625
1166;16909;Wittstock/Dosse Dranse;Brandenburg;Landkreis Ostprignitz-Ruppin;53.2;12.6167
1167;16909;Heiligengrabe Zaatzke;Brandenburg;Landkreis Ostprignitz-Ruppin;53.1833;12.4
1168;16909;Heiligengrabe Maulbeerwalde;Brandenburg;Landkreis Ostprignitz-Ruppin;53.1833;12.35
1169;16909;Wittstock/Dosse;Brandenburg;Landkreis Ostprignitz-Ruppin;53.1549;12.487
1170;16909;Wittstock/Dosse Dossow;Brandenburg;Landkreis Ostprignitz-Ruppin;53.1167;12.5333
1171;16909;Heiligengrabe Papenbruch;Brandenburg;Landkreis Ostprignitz-Ruppin;53.1333;12.4333
1172;16909;Wittstock/Dosse Zootzen;Brandenburg;Landkreis Ostprignitz-Ruppin;53.1333;12.5833
1173;16909;Wittstock/Dosse Schweinrich;Brandenburg;Landkreis Ostprignitz-Ruppin;53.1833;12.6333
1174;16909;Wittstock/Dosse Herzsprung;Brandenburg;Landkreis Ostprignitz-Ruppin;53.0667;12.4667
1175;16909;Wittstock/Dosse Wulfersdorf;Brandenburg;Landkreis Ostprignitz-Ruppin;53.25;12.4333
1176;16909;Wittstock/Dosse Fretzdorf;Brandenburg;Landkreis Ostprignitz-Ruppin;53.0667;12.55
1177;16909;Wittstock/Dosse Gadow;Brandenburg;Landkreis Ostprignitz-Ruppin;53.1167;12.6167
1178;16909;Wittstock/Dosse Niemerlang;Brandenburg;Landkreis Ostprignitz-Ruppin;53.25;12.35
1179;16909;Heiligengrabe Grabow bei Blumenthal;Brandenburg;Landkreis Ostprignitz-Ruppin;53.0833;12.4
1180;16909;Wittstock/Dosse Rossow;Brandenburg;Landkreis Ostprignitz-Ruppin;53.05;12.5667
1181;16909;Wittstock/Dosse Christdorf;Brandenburg;Landkreis Ostprignitz-Ruppin;53.0833;12.4667
1182;16909;Wittstock/Dosse Goldbeck;Brandenburg;Landkreis Ostprignitz-Ruppin;53.1333;12.5167
1183;16909;Wittstock/Dosse Sewekow;Brandenburg;Landkreis Ostprignitz-Ruppin;53.25;12.65
1184;16909;Wittstock/Dosse Königsberg;Brandenburg;Landkreis Ostprignitz-Ruppin;53.0667;12.4333
1185;16918;Wittstock/Dosse Freyenstein;Brandenburg;Landkreis Ostprignitz-Ruppin;53.2833;12.35
1186;16921;Alt Krüssow;Brandenburg;Landkreis Prignitz;53.15;12.2667
1187;16928;Falkenhagen;Brandenburg;Landkreis Prignitz;53.2065;12.2031
1188;16928;Beveringen;Brandenburg;Landkreis Prignitz;53.1507;12.2208
1189;16928;Heiligengrabe Blumenthal;Brandenburg;Landkreis Prignitz;53.0833;12.3667
1190;16928;Lindenberg;Brandenburg;Landkreis Prignitz;53.0377;12.1291
1191;16928;Helle;Brandenburg;Landkreis Prignitz;53.1679;12.0326
1192;16928;Boddin-Langnow;Brandenburg;Landkreis Prignitz;53.1;12.2778
1193;16928;Pritzwalk;Brandenburg;Landkreis Prignitz;53.1494;12.1741
1194;16928;Sadenbeck;Brandenburg;Landkreis Prignitz;53.1866;12.2652
1195;16928;Mesendorf;Brandenburg;Landkreis Prignitz;53.0953;12.1309
1196;16928;Kuhsdorf;Brandenburg;Landkreis Prignitz;53.1185;12.1072
1197;16928;Kehrberg;Brandenburg;Landkreis Prignitz;53.0474;12.1869
1198;16928;Alt Krüssow;Brandenburg;Landkreis Prignitz;53.15;12.2667
1199;16928;Groß Woltersdorf;Brandenburg;Landkreis Prignitz;53.0824;12.1506
1200;16928;Heiligengrabe Rosenwinkel;Brandenburg;Landkreis Prignitz;53.05;12.3667
1201;16928;Schönebeck;Brandenburg;Landkreis Prignitz;53.0595;12.2331
1202;16928;Buchholz;Brandenburg;Landkreis Prignitz;53.1175;12.1835
1203;16928;Vettin;Brandenburg;Landkreis Prignitz;53.0332;12.1706
1204;16928;Wilmersdorf;Brandenburg;Landkreis Prignitz;53.1622;12.3074
1205;16928;Hoppenrade;Brandenburg;Landkreis Prignitz;53.0365;12.0616
1206;16928;Kemnitz;Brandenburg;Landkreis Prignitz;53.1394;12.236
1207;16928;Groß Pankow;Brandenburg;Landkreis Prignitz;53.1195;12.0497
1208;16928;Tüchen;Brandenburg;Landkreis Prignitz;53.0621;12.0933
1209;16928;Kuhbier;Brandenburg;Landkreis Prignitz;53.1484;12.0942
1210;16928;Klein Woltersdorf;Brandenburg;Landkreis Prignitz;53.0754;12.1849
1211;16928;Gerdshagen;Brandenburg;Landkreis Prignitz;53.2446;12.1981
1212;16928;Steffenshagen;Brandenburg;Landkreis Prignitz;53.1985;12.1175
1213;16945;Marienfließ;Brandenburg;Landkreis Prignitz;53.32;12.1233
1214;16945;Meyenburg;Brandenburg;Landkreis Prignitz;53.3133;12.2425
1215;16945;Halenbeck-Rohlsdorf;Brandenburg;Landkreis Prignitz;53.2333;12.28
1216;16945;Kümmernitztal;Brandenburg;Landkreis Prignitz;53.2417;12.1583
1217;16949;Putlitz;Brandenburg;Landkreis Prignitz;53.249;12.0418
1218;16949;Triglitz;Brandenburg;Landkreis Prignitz;53.2167;12.1
1219;17268;Boitzenburger Land;Brandenburg;Landkreis Uckermark;53.255;13.5867
1220;17268;Temmen-Ringenwalde;Brandenburg;Landkreis Uckermark;53.08;13.7417
1221;17268;Flieth-Stegelitz;Brandenburg;Landkreis Uckermark;53.1417;13.8333
1222;17268;Klosterwalde;Brandenburg;Landkreis Uckermark;53.1711;13.5617
1223;17268;Gandenitz;Brandenburg;Landkreis Uckermark;53.1735;13.4409
1224;17268;Storkow;Brandenburg;Landkreis Uckermark;53.047;13.4424
1225;17268;Vietmannsdorf;Brandenburg;Landkreis Uckermark;53.0502;13.5295
1226;17268;Templin;Brandenburg;Landkreis Uckermark;53.1262;13.5455
1227;17268;Milmersdorf;Brandenburg;Landkreis Uckermark;53.1119;13.6415
1228;17268;Mittenwalde;Brandenburg;Landkreis Uckermark;53.1833;13.6667
1229;17268;Petznick;Brandenburg;Landkreis Uckermark;53.1621;13.6253
1230;17268;Herzfelde;Brandenburg;Landkreis Uckermark;53.1975;13.6031
1231;17268;Grunewald;Brandenburg;Landkreis Uckermark;53.0235;13.4806
1232;17268;Densow;Brandenburg;Landkreis Uckermark;53.1453;13.3779
1233;17268;Gollin;Brandenburg;Landkreis Uckermark;53.049;13.6032
1234;17268;Gerswalde;Brandenburg;Landkreis Uckermark;53.1699;13.7485
1235;17268;Hammelspring;Brandenburg;Landkreis Uckermark;53.0714;13.4319
1236;17268;Groß Dölln;Brandenburg;Landkreis Uckermark;52.9928;13.5255
1237;17268;Beutel;Brandenburg;Landkreis Uckermark;53.1138;13.3889
1238;17268;Röddelin;Brandenburg;Landkreis Uckermark;53.1017;13.4442
1239;17279;Lychen;Brandenburg;Landkreis Uckermark;53.2124;13.3148
1240;17291;Uckerfelde;Brandenburg;Landkreis Uckermark;53.2583;13.9667
1241;17291;Schenkenberg;Brandenburg;Landkreis Uckermark;53.3667;13.95
1242;17291;Prenzlau;Brandenburg;Landkreis Uckermark;53.3162;13.8626
1243;17291;Gramzow;Brandenburg;Landkreis Uckermark;53.2125;14.0075
1244;17291;Göritz;Brandenburg;Landkreis Uckermark;53.4063;13.9156
1245;17291;Randowtal;Brandenburg;Landkreis Uckermark;53.3056;14.0556
1246;17291;Grünow;Brandenburg;Landkreis Uckermark;53.3167;13.95
1247;17291;Nordwestuckermark;Brandenburg;Landkreis Uckermark;53.2697;13.6046
1248;17291;Schönfeld;Brandenburg;Landkreis Uckermark;53.4136;13.9857
1249;17291;Oberuckersee;Brandenburg;Landkreis Uckermark;53.2125;13.8875
1250;17291;Carmzow-Wallmow;Brandenburg;Landkreis Uckermark;53.3667;14.068
1251;17326;Brüssow;Brandenburg;Landkreis Uckermark;53.3997;14.1253
1252;17337;Uckerland;Brandenburg;Landkreis Uckermark;53.4569;13.7806
1253;19309;Lenzen (Elbe);Brandenburg;Landkreis Prignitz;53.0833;11.4833
1254;19309;Lanz;Brandenburg;Landkreis Prignitz;53.0744;11.5991
1255;19309;Wootz;Brandenburg;Landkreis Prignitz;53.0663;11.3535
1256;19309;Besandten;Brandenburg;Landkreis Prignitz;53.0895;11.2931
1257;19309;Mellen;Brandenburg;Landkreis Prignitz;53.1532;11.589
1258;19309;Eldenburg;Brandenburg;Landkreis Prignitz;53.1142;11.4387
1259;19322;Rühstädt;Brandenburg;Landkreis Prignitz;52.9167;11.8667
1260;19322;Breese;Brandenburg;Landkreis Prignitz;53.0;11.8
1261;19322;Wittenberge;Brandenburg;Landkreis Prignitz;53.0054;11.7503
1262;19322;Weisen;Brandenburg;Landkreis Prignitz;53.0252;11.7871
1263;19322;Cumlosen;Brandenburg;Landkreis Prignitz;53.0333;11.6667
1264;19322;Groß Breese;Brandenburg;Landkreis Prignitz;53.0051;11.8232
1265;19336;Legde/Quitzöbel;Brandenburg;Landkreis Prignitz;52.9111;11.9778
1266;19336;Viesecke;Brandenburg;Landkreis Prignitz;53.0134;12.0278
1267;19336;Bad Wilsnack;Brandenburg;Landkreis Prignitz;52.9561;11.949
1268;19336;Kletzke;Brandenburg;Landkreis Prignitz;52.9962;12.0554
1269;19339;Netzow;Brandenburg;Landkreis Prignitz;52.9216;12.1385
1270;19339;Glöwen;Brandenburg;Landkreis Prignitz;52.9142;12.0855
1271;19339;Bendelin;Brandenburg;Landkreis Prignitz;52.91;12.1689
1272;19348;Gülitz-Reetz;Brandenburg;Landkreis Prignitz;53.1889;11.9278
1273;19348;Kleinow;Brandenburg;Landkreis Prignitz;53.0525;11.958
1274;19348;Krampfer;Brandenburg;Landkreis Prignitz;53.0597;12.0191
1275;19348;Perleberg;Brandenburg;Landkreis Prignitz;53.0758;11.8574
1276;19348;Retzin;Brandenburg;Landkreis Prignitz;53.1141;11.9948
1277;19348;Klein Gottschow;Brandenburg;Landkreis Prignitz;53.097;12.0039
1278;19348;Wolfshagen;Brandenburg;Landkreis Prignitz;53.1482;12.0114
1279;19348;Berge;Brandenburg;Landkreis Prignitz;53.2333;11.8667
1280;19348;Pirow;Brandenburg;Landkreis Prignitz;53.2167;11.9
1281;19348;Nebelin;Brandenburg;Landkreis Prignitz;53.1089;11.7226
1282;19348;Baek;Brandenburg;Landkreis Prignitz;53.1633;11.9164
1283;19357;Pröttlin;Brandenburg;Landkreis Prignitz;53.197;11.5785
1284;19357;Garlin;Brandenburg;Landkreis Prignitz;53.1843;11.6788
1285;19357;Boberow;Brandenburg;Landkreis Prignitz;53.146;11.6146
1286;19357;Mankmuß;Brandenburg;Landkreis Prignitz;53.1315;11.6664
1287;19357;Karstädt;Brandenburg;Landkreis Prignitz;53.1622;11.7424
1288;10115;Berlin;Berlin;Berlin, Stadt;52.5323;13.3846
1289;10117;Berlin;Berlin;Berlin, Stadt;52.517;13.3872
1290;10119;Berlin;Berlin;Berlin, Stadt;52.5305;13.4053
1291;10178;Berlin;Berlin;Berlin, Stadt;52.5213;13.4096
1292;10179;Berlin;Berlin;Berlin, Stadt;52.5122;13.4164
1293;10243;Berlin Friedrichshain;Berlin;Berlin, Stadt;52.5123;13.4394
1294;10245;Berlin Friedrichshain;Berlin;Berlin, Stadt;52.5007;13.4647
1295;10247;Berlin Friedrichshain;Berlin;Berlin, Stadt;52.5161;13.4656
1296;10249;Berlin Friedrichshain;Berlin;Berlin, Stadt;52.5238;13.4428
1297;10315;Berlin;Berlin;Berlin, Stadt;52.5132;13.5148
1298;10317;Berlin;Berlin;Berlin, Stadt;52.4979;13.4908
1299;10318;Berlin;Berlin;Berlin, Stadt;52.4835;13.5287
1300;10319;Berlin;Berlin;Berlin, Stadt;52.4992;13.5188
1301;10365;Berlin;Berlin;Berlin, Stadt;52.5206;13.4969
1302;10367;Berlin;Berlin;Berlin, Stadt;52.5246;13.4821
1303;10369;Berlin;Berlin;Berlin, Stadt;52.5295;13.4695
1304;10405;Berlin;Berlin;Berlin, Stadt;52.5352;13.4257
1305;10407;Berlin;Berlin;Berlin, Stadt;52.5336;13.4492
1306;10409;Berlin;Berlin;Berlin, Stadt;52.5443;13.4414
1307;10435;Berlin;Berlin;Berlin, Stadt;52.5378;13.4112
1308;10437;Berlin;Berlin;Berlin, Stadt;52.5449;13.4126
1309;10439;Berlin;Berlin;Berlin, Stadt;52.5522;13.4121
1310;10551;Berlin;Berlin;Berlin, Stadt;52.5307;13.3372
1311;10553;Berlin;Berlin;Berlin, Stadt;52.5305;13.3215
1312;10555;Berlin;Berlin;Berlin, Stadt;52.5215;13.3355
1313;10557;Berlin;Berlin;Berlin, Stadt;52.5233;13.3594
1314;10559;Berlin;Berlin;Berlin, Stadt;52.5301;13.3499
1315;10585;Berlin;Berlin;Berlin, Stadt;52.5152;13.3057
1316;10587;Berlin;Berlin;Berlin, Stadt;52.5184;13.3195
1317;10589;Berlin;Berlin;Berlin, Stadt;52.5276;13.3057
1318;10623;Berlin;Berlin;Berlin, Stadt;52.5088;13.3274
1319;10625;Berlin;Berlin;Berlin, Stadt;52.5095;13.3147
1320;10627;Berlin;Berlin;Berlin, Stadt;52.508;13.303
1321;10629;Berlin;Berlin;Berlin, Stadt;52.5028;13.3086
1322;10707;Berlin;Berlin;Berlin, Stadt;52.4967;13.3138
1323;10709;Berlin;Berlin;Berlin, Stadt;52.4939;13.3031
1324;10711;Berlin;Berlin;Berlin, Stadt;52.4981;13.2905
1325;10713;Berlin;Berlin;Berlin, Stadt;52.4851;13.3133
1326;10715;Berlin;Berlin;Berlin, Stadt;52.4824;13.3289
1327;10717;Berlin;Berlin;Berlin, Stadt;52.4908;13.3275
1328;10719;Berlin;Berlin;Berlin, Stadt;52.4988;13.3257
1329;10777;Berlin;Berlin;Berlin, Stadt;52.4975;13.3427
1330;10779;Berlin;Berlin;Berlin, Stadt;52.4921;13.3395
1331;10781;Berlin;Berlin;Berlin, Stadt;52.4936;13.3529
1332;10783;Berlin;Berlin;Berlin, Stadt;52.4964;13.3624
1333;10785;Berlin;Berlin;Berlin, Stadt;52.5073;13.3643
1334;10787;Berlin;Berlin;Berlin, Stadt;52.5078;13.3439
1335;10789;Berlin;Berlin;Berlin, Stadt;52.5017;13.3377
1336;10823;Berlin;Berlin;Berlin, Stadt;52.4873;13.3509
1337;10825;Berlin;Berlin;Berlin, Stadt;52.4838;13.3413
1338;10827;Berlin;Berlin;Berlin, Stadt;52.4838;13.3543
1339;10829;Berlin;Berlin;Berlin, Stadt;52.4761;13.3607
1340;10961;Berlin Kreuzberg;Berlin;Berlin, Stadt;52.4926;13.3975
1341;10963;Berlin Kreuzberg;Berlin;Berlin, Stadt;52.5003;13.3813
